code,name,wac,city,state,country,globalregion,latitude,longitude
AAC,El Arish International,591,El Arish,,Egypt,Africa,31.0764,33.8333
AAD,Ad-Dabbah Airport,583,Ad-Dabbah,,Sudan,Africa,18.05,30.95
AAE,Rabah Bitat,500,Annaba,,Algeria,Africa,36.8217,7.81
AAF,Apalachicola Municipal Airport,33,Apalachicola,Florida,United States,North America,29.7333,-84.9833
AAG,Avelino Vieira,316,Arapoti,Parana,Brazil,South America,-24.1036,-49.79
AAH,Merzbrueck,429,Aachen,,Germany,Europe,50.75,6.1333
AAI,Arraias Airport,316,Arraias,Tocantins,Brazil,South America,-12.9167,-46.9333
AAJ,Cajana,379,Awaradam,,Suriname,South America,3.9,-55.3667
AAK,Aranuka Airport,824,Aranuka,,Kiribati,Australasia,0.1667,173.5833
AAL,Aalborg,419,Aalborg,,Denmark,Europe,57.0931,9.85
AAM,Mala Mala,562,Mala Mala,,South Africa,Africa,-24.8083,31.5417
AAN,Al Ain International,678,Al Ain,,United Arab Emirates,Middle East,24.2617,55.6092
AAO,Anaco,388,Anaco,,Venezuela,South America,9.4319,-64.4639
AAP,Andrau Airpark,74,Houston,Texas,United States,North America,29.8333,-95.6667
AAQ,Vityazevo,475,Anapa,Southern Federal District,Russian Federation,Europe,44.9,37.3167
AAR,Tirstrup,419,Aarhus,,Denmark,Europe,56.3103,10.6181
AAS,Apalapsili,732,Apalapsili,,Indonesia,Asia,-3.9167,139.25
AAT,Altay,713,Altay,,China,Asia,47.749943,88.084547
AAU,Asau,892,Asau,,Western Samoa,Australasia,-13.5167,-172.65
AAV,Allah Valley Airport,766,Alah,,Philippines,Asia,6.3333,124.7667
AAW,Abbottabad Airport,764,Abbottabad,,Pakistan,Asia,34.2,73.25
AAX,Araxa,316,Araxa,Minas Gerais,Brazil,South America,-19.5681,-46.9292
AAY,"Al Ghaydah, Yemen",694,"Al Ghaydah, Yemen",,Yemen,Middle East,16.2,52.1833
AAZ,Quetzaltenango,127,Quetzaltenango,,Guatemala,Central America,14.8655,-91.502
ABA,Abakan,475,Abakan,Siberian Federal District,Russian Federation,Asia,53.7167,91.4333
ABB,Asaba International Airport,555,Asaba,,Nigeria,Africa,6.2031,6.6672
ABC,Albacete Airport,482,Albacete,,Spain,Europe,38.9486,-1.8636
ABD,Abadan Intl,632,"Abadan, Iran",,Iran,Middle East,30.3661,48.2322
ABE,Lehigh Valley International,23,Allentown,Pennsylvania,United States,North America,40.6547,-75.4383
ABF,Abaiang Airport,824,Abaiang,,Kiribati,Australasia,1.6708,173.3042
ABG,Abingdon Downs Airport,802,Abingdon Downs,Queensland,Australia,Australasia,-17.6667,143.2
ABH,Alpha,802,Alpha,Queensland,Australia,Australasia,-23.7,146.5833
ABI,Abilene Regional Airport,74,Abilene,Texas,United States,North America,32.4094,-99.6797
ABJ,Felix Houphouet Boigny,533,Abidjan,,Ivory Coast (Cote d'Ivoire),Africa,5.2564,-3.9269
ABK,Kabri Dar,522,Kabri Dar,,Ethiopia,Africa,6.7339,44.2661
ABL,Ambler River,1,Ambler,Alaska,United States,North America,67.0875,-157.8458
ABM,Northern Peninsula,802,Bamaga,Queensland,Australia,Australasia,-10.9508,142.4
ABN,Albina,379,Albina,,Suriname,South America,5.4833,-54.05
ABO,Aboisso Airport,533,Aboisso,,Ivory Coast (Cote d'Ivoire),Africa,5.4333,-3.2167
ABP,Atkamba Airport,804,Atkamba,,Papua New Guinea,Australasia,-6.0667,141.1
ABQ,International Sunport,86,Albuquerque,New Mexico,United States,North America,35.0417,-106.6064
ABR,Aberdeen Regional,67,Aberdeen,South Dakota,United States,North America,45.4525,-98.4261
ABS,Abu Simbel,591,Abu Simbel,,Egypt,Africa,22.3722,31.6153
ABT,Al-Aqiq,670,Al-Baha,,Saudi Arabia,Middle East,20.2961,41.6342
ABU,Haliwen,732,Atambua,,Indonesia,Asia,-9.3333,124.9
ABV,Nnamdi Azikiwe International Airport,555,Abuja,,Nigeria,Africa,9.0056,7.2661
ABW,Abau,804,Abau,,Papua New Guinea,Australasia,-10.1667,148.7
ABX,Albury,802,Albury,New South Wales,Australia,Australasia,-36.0683,146.9767
ABY,Dougherty County,34,Albany,Georgia,United States,North America,31.5322,-84.1961
ABZ,Dyce,493,Aberdeen,Scotland,United Kingdom,Europe,57.2042,-2.1981
ACA,Acapulco International,148,Acapulco,,Mexico,North America,16.7556,-99.7669
ACB,Antrim County Airport,43,Bellaire,Michigan,United States,North America,44.9833,-85.2167
ACC,Kotoka International,529,Accra,,Ghana,Africa,5.5953,-0.1708
ACD,Alcides Fernandez,327,Acandi,,Colombia,South America,8.5167,-77.3
ACE,Lanzarote,482,Lanzarote,,Spain,Europe,28.9425,-13.6047
ACH,St Gallen-Altenrhein Airport,486,Altenrhein,,Switzerland,Europe,47.485,9.5608
ACI,Alderney,493,Alderney,Channel Islands,United Kingdom,Europe,49.7069,-2.2153
ACJ,Anuradhapura Airport,711,Anuradhapura,,Sri Lanka,Asia,8.35,80.3833
ACK,Nantucket Memorial,13,Nantucket,Massachusetts,United States,North America,41.2567,-70.0597
ACL,Aguaclara,327,Aguaclara,,Colombia,South America,4.75,-73
ACM,Arica,327,Arica,,Colombia,South America,-2.1333,-71.7833
ACN,Ciudad Acuna International,148,Ciudad Acuna,,Mexico,North America,29.3,-100.9167
ACO,Ascona Airport,486,Ascona,,Switzerland,Europe,46.1594,8.7831
ACP,Sahand Airport,632,Maragheh,,Iran,Middle East,37.3544,46.1497
ACR,Araracuara Airport,327,Araracuara,,Colombia,South America,-0.3833,-72.3
ACS,Achinsk,475,Achinsk,Siberian Federal District,Russian Federation,Asia,56.2667,90.5667
ACT,Waco Municipal,74,Waco,Texas,United States,North America,31.6114,-97.2286
ACU,Achutupo,162,Achutupo,,Panama,Central America,9.1819,-78.0155
ACV,Arcata,91,Eureka/Arcata,California,United States,North America,40.9792,-124.1075
ACX,Xingyi Airport,713,Xingyi,,China,Asia,25.0856,104.9594
ACY,Atlantic City Intl,21,Atlantic City,New Jersey,United States,North America,39.4567,-74.5778
ACZ,Zabol Airport,632,Zabol,,Iran,Middle East,31.0858,61.535
ADA,Adana Sakirpasa,679,Adana,,Turkey,Europe,36.9836,35.2808
ADB,Adnan Menderes,679,Izmir-Adnan Mend,,Turkey,Europe,38.2947,27.16
ADC,Andakombe Airport,804,Andakombe,,Papua New Guinea,Australasia,-7.1333,145.7333
ADD,Bole International,522,Addis Ababa,,Ethiopia,Africa,8.9778,38.7981
ADE,Aden International,694,Aden,,Yemen,Middle East,12.8278,45.0306
ADF,Adiyaman Airport,679,Adiyaman,,Turkey,Europe,37.7335,38.4722
ADG,Lenawee County Airport,43,Adrian,Michigan,United States,North America,41.9,-84.0333
ADH,Aldan Airport,475,Aldan,Far East Federal District,Russian Federation,Asia,58.6,125.4
ADI,Arandis,575,Arandis,,Namibia,Africa,-22.4,15
ADJ,Marka International Airpot,639,Amman,,Jordan,Middle East,31.9722,35.99
ADK,Adak Island,1,Adak Island,Alaska,United States,North America,51.8828,-176.6447
ADL,Adelaide International,802,Adelaide,South Australia,Australia,Australasia,-34.9483,138.5347
ADM,Ardmore Municipal Airport,73,Ardmore,Oklahoma,United States,North America,34.3031,-97.0194
ADN,Andes Airport,327,Andes,,Colombia,South America,5.6667,-75.9333
ADO,Andamooka,802,Andamooka,South Australia,Australia,Australasia,-30.3833,137.1958
ADP,Gal Oya,711,Ampara,,Sri Lanka,Asia,8.3,80.4167
ADQ,Kodiak Airport,1,Kodiak,Alaska,United States,North America,57.7542,-152.4833
ADR,Andrews Airport,37,Andrews,South Carolina,United States,North America,33.45,-79.5667
ADS,Addison,74,Dallas,Texas,United States,North America,32.9683,-96.8361
ADT,Ada Municipal,73,Ada,Oklahoma,United States,North America,34.8,-96.6667
ADU,Ardabil,632,Ardabil,,Iran,Middle East,38.25,48.3
ADV,Addeain,583,Addeain,,Sudan,Africa,11.4022,26.1186
ADW,Andrews Air Force Base,35,Camp Springs,Maryland,United States,North America,38.8108,-76.8666
ADX,Leuchars RAF,493,Saint Andrews,Scotland,United Kingdom,Europe,56.3667,-2.8667
ADY,Alldays Airport,562,Alldays,,South Africa,Africa,-22.6667,29.05
ADZ,Gustavo R. Pinilla Int,327,San Andres Island,,Colombia,South America,12.5833,-81.7
AEA,Abemama,824,Abemama,,Kiribati,Australasia,0.4833,173.85
AEB,Youjiang,713,Baise,,China,Asia,23.73,106.96
AED,"Aleneva, Ak",1,"Aleneva, Ak",Alaska,United States,North America,58.033,-152.9
AEE,Adareil,584,Adareil,,South Sudan,Africa,-10.0611,32.97
AEG,Aekgodang,732,Padangsidempuan,,Indonesia,Asia,1.3997,99.4167
AEH,Abecher Airport,511,Abecher,,Chad,Africa,13.8514,20.8508
AEI,Algeciras Railway Station,482,Algeciras,,Spain,Europe,36.1275,-5.4539
AEK,Aseki Airport,804,Aseki,,Papua New Guinea,Australasia,-7.3667,146.2833
AEL,Albert Lea Municipal,63,Albert Lea,Minnesota,United States,North America,43.65,-93.3667
AEO,Aioun el Atrouss,545,Aioun el Atrouss,,Mauritania,Africa,16.7092,-9.6356
AEP,Jorge Newbery,303,Buenos Aires-Newbery,Buenos Aires,Argentina,South America,-34.5589,-58.4158
AER,International,475,Sochi,Southern Federal District,Russian Federation,Europe,43.45,39.9333
AES,Vigra,465,Alesund,,Norway,Europe,62.5625,6.1053
AET,Allakaket,1,Allakaket,Alaska,United States,North America,66.5617,-152.6583
AEU,Abu Musa Ialsnd Airport,632,Abu Musa Island,,Iran,Middle East,25.8875,55.0417
AEX,Alexandria Intl Airport,72,Alexandria,Louisiana,United States,North America,31.3274,-92.5486
AEY,Akureyri,439,Akureyri,,Iceland,Europe,65.6569,-18.0722
AFA,San Rafael,303,San Rafael,Mendoza,Argentina,South America,-34.5892,-68.4006
AFD,Port Alfred Airport,562,Port Alfred,,South Africa,Africa,-33.5833,26.8833
AFF,USAF Academy Airfield,82,Colorado Springs,Colorado,United States,North America,38.8333,-104.7
AFI,Amalfi,327,Amalfi,,Colombia,South America,6.9167,-75.0667
AFK,Kondavattavan Tank SPB,711,Ampara,,Sri Lanka,Asia,7.2917,81.6353
AFL,Oswaldo Marques Dias,316,Alta Floresta,Mato Grosso,Brazil,South America,-9.8654,-56.1059
AFN,Jaffrey Municipal Airport,14,Jaffrey,New Hampshire,United States,North America,42.8333,-72.0667
AFO,Afton,88,Afton,Wyoming,United States,North America,42.7167,-110.9333
AFR,Afore Airport,804,Afore,,Papua New Guinea,Australasia,-9.1333,148.3833
AFS,Zarafshan Airport,788,Zarafshan,,Uzbekistan,Asia,41.6136,64.2331
AFT,Afutara,874,Afutara,,Solomon Islands,Australasia,-9.1167,160.5167
AFW,Fort Worth Alliance,74,Fort Worth-Alliance,Texas,United States,North America,32.9863,-97.3168
AFY,Afyon Airport,679,Afyon,,Turkey,Europe,38.7333,30.6
AFZ,Sabzevar Airport,632,Sabzevar,,Iran,Middle East,36.1686,57.5964
AGA,Agadir-Al Massira Airport,548,Agadir,,Morocco,Africa,30.3806,-9.5458
AGB,Munich Augsburg Airport,429,Munich,,Germany,Europe,48.4261,10.9331
AGC,Allegheny County,23,Pittsburgh,Pennsylvania,United States,North America,40.3547,-79.93
AGD,Anggi,732,Anggi,,Indonesia,Asia,-1.3833,133.8667
AGE,Wangerooge,429,Wangerooge,,Germany,Europe,53.7833,7.9167
AGF,La Garenne,427,Agen,,France,Europe,44.1736,0.5986
AGG,Angoram,804,Angoram,,Papua New Guinea,Australasia,-4.0658,144.0739
AGH,Angelholm-Helsingborg Airport,484,Helsingborg,,Sweden,Europe,56.2931,12.8625
AGI,Wageningen,379,Wageningen,,Suriname,South America,5.7667,-56.6833
AGJ,Aguni,736,Aguni,,Japan,Asia,26.8333,127.1667
AGK,Kagua Airport,804,Kagua,,Papua New Guinea,Australasia,-6.4033,143.8467
AGL,Wanigela,804,Wanigela,,Papua New Guinea,Australasia,-9.3403,149.1553
AGM,Ammassalik Heliport,975,Tasiilaq,,Greenland,North America,65.6667,-37.6667
AGN,Angoon Spb,1,Angoon,Alaska,United States,North America,57.5039,-134.5833
AGO,Magnolia Municipal Airport,71,Magnolia,Arkansas,United States,North America,33.2667,-93.2333
AGP,Malaga Airport,482,Malaga,,Spain,Europe,36.6717,-4.4981
AGQ,G.Karaiskakis Airport,433,Agrinion,,Greece,Europe,38.6019,21.3511
AGR,Kheria,733,Agra,,India,Asia,27.1583,77.9628
AGS,Bush Field,34,Augusta,Georgia,United States,North America,33.3692,-81.9644
AGT,Guarani International Airport,365,Ciudad Del Este,,Paraguay,South America,-25.4555,-54.8434
AGU,Aguascalientes International Airport,148,Aguascalientes,,Mexico,North America,21.7028,-102.3179
AGV,Oswaldo Guevara Mujica,388,Acarigua,,Venezuela,South America,9.5522,-69.2333
AGW,Agnew Airport,802,Agnew,Queensland,Australia,Australasia,-12.15,142.15
AGX,Agatti Island,733,Agatti Island,,India,Asia,10.8242,72.176
AGY,Hbf Railway Station,429,Munich,,Germany,Europe,48.3656,10.8864
AGZ,Aggeneys Airport,562,Aggeneys,,South Africa,Africa,-29.05,18.85
AHA,Naha AFB,736,Okinawa,,Japan,Asia,26.199095,127.644661
AHB,Abha,670,Abha,,Saudi Arabia,Middle East,18.2372,42.6589
AHC,Amedee Aaf,91,Herlong,California,United States,North America,40.2664,-120.1514
AHD,Downtown Executive,73,Ardmore,Oklahoma,United States,North America,34.1667,-97.1333
AHE,Ahe Airport,823,Ahe,,French Polynesia,Australasia,-14.4275,-146.2561
AHF,Arapahoe Municipal Airport,65,Arapahoe,Nebraska,United States,North America,40.3,-99.9
AHH,Amery Municipal Airport,45,Amery,Wisconsin,United States,North America,45.3,-92.35
AHI,Amahai,732,Amahai,,Indonesia,Asia,-3.3333,128.9167
AHJ,Aba Hongyuan,713,Aba Hongyuan,,China,Asia,32.5314,102.3519
AHL,Aishalton Airport,350,Aishalton,,Guyana,South America,2.4833,-59.3167
AHM,Municipal,92,Ashland,Oregon,United States,North America,42.1903,-122.6606
AHN,Athens Municipal,34,Athens,Georgia,United States,North America,33.9483,-83.3269
AHO,Fertilia,450,Alghero,,Italy,Europe,40.6306,8.2889
AHS,Ahuas,131,Ahuas,,Honduras,Central America,15.4728,-84.3514
AHT,Amchitka,1,Amchitka,Alaska,United States,North America,51.3786,179.2586
AHU,Charif Al Idrissi,548,Al Hoceima,,Morocco,Africa,35.1797,-3.8369
AHW,Saihrawl Airport,658,Saihrawl,,Oman,Middle East,21.3428,56.7656
AHY,Ambatolahy Airport,541,Ambatolahy,,Madagascar,Africa,-20.0167,45.5333
AHZ,Alpe D Huez Airport,427,Alpe D Huez,,France,Europe,45.0833,6.0833
AIA,Alliance Municipal,65,Alliance,Nebraska,United States,North America,42.0517,-102.8067
AIB,Anita Bay Airport,1,Anita Bay,Alaska,United States,North America,56.2333,-132.3833
AIC,Ailinglapalap,844,Airok,,Marshall Islands,Australasia,7.1,171.2333
AID,Anderson Municipal,42,Anderson,Indiana,United States,North America,40.1075,-85.6114
AIE,Aiome,804,Aiome,,Papua New Guinea,Australasia,-5.1333,144.7333
AIF,Marcelo P. Halzhausen,316,Assis,Sao Paulo,Brazil,South America,-22.6667,-50.4167
AIG,Yalinga,509,Yalinga,,Central African Republic,Africa,6.5167,23.25
AIH,Aiambak Airport,804,Aiambak,,Papua New Guinea,Australasia,-7.3486,141.2664
AII,Ali Sabieh Airport,525,Ali Sabieh,,Djibouti,Africa,11.15,42.7167
AIK,Aiken Municipal,37,Aiken,South Carolina,United States,North America,33.65,-81.6847
AIL,Ailigandi Airport,162,Ailigandi,,Panama,Central America,9.25,-78.0833
AIM,Ailuk,844,Ailuk,,Marshall Islands,Australasia,10.2,169.9833
AIN,Wainwright,1,Wainwright,Alaska,United States,North America,70.6306,-160.0431
AIO,Atlantic Municipal Airport,61,Atlantic,Iowa,United States,North America,41.4,-95.0167
AIP,Ailinglapalap Island Airport,844,Ailinglapalap Island,,Marshall Islands,Australasia,7.2667,168.8167
AIR,Aripuana,316,Aripuana,Mato Grosso,Brazil,South America,-10.1847,-59.4514
AIS,Arorae,824,Arorae,,Kiribati,Australasia,-2.6333,176.8167
AIT,Aitutaki Island,813,Aitutaki Island,,Cook Islands,Australasia,-18.85,-159.75
AIU,"Atiu, Cook Islands",813,"Atiu, Cook Islands",,Cook Islands,Australasia,-20.0333,-158.1
AIV,George Downer,51,Aliceville,Alabama,United States,North America,33.1,-88.2
AIW,Ai-Ais Airport,575,Ai-Ais,,Namibia,Africa,-27.9833,17.5833
AIY,Bader Field,21,Atlantic City,New Jersey,United States,North America,39.36,-74.4572
AIZ,Lee C Fine Memorial Airport,64,Kaiser/Lake Ozark,Missouri,United States,North America,38.0983,-92.5472
AJA,Napoleon Bonaparte,427,"Ajaccio, Corsica",,France,Europe,41.9242,8.8031
AJF,Al Jouf,670,Jouf,,Saudi Arabia,Middle East,29.8,40.0667
AJI,Agri Airport,679,Agri,,Turkey,Europe,39.658,43.0256
AJJ,Anjoujt,545,Akjoujt,,Mauritania,Africa,19.7306,-14.3744
AJK,Araak Airport,632,Araak,,Iran,Middle East,34.1333,49.8333
AJL,Lengpui,733,Aizawl,,India,Asia,23.7333,92.7167
AJN,Ouani Airport,513,Anjouan,,Comoros,Africa,-12.1264,44.4297
AJO,Aljouf,694,Aljouf,,Yemen,Middle East,15.7167,44.25
AJR,Arvidsjaur,484,Arvidsjuar,,Sweden,Europe,65.5833,19.2833
AJS,MX2,148,Punta Abreojos,,Mexico,North America,26.8333,-113.6667
AJU,Santa Maria,316,Aracaju,Sergipe,Brazil,South America,-10.9833,-37.05
AJY,Manu Dayak International Airport,554,Agadez,,Niger,Africa,16.9642,7.9931
AKA,Wulipu,713,Ankang,,China,Asia,32.5,109.0083
AKB,Atka,1,Atka,Alaska,United States,North America,52.2203,-174.2069
AKC,Canton Akron Fulton International Airport,44,Akron/Canton,Ohio,United States,North America,41.04,-81.4678
AKD,Akola Airport,733,Akola,,India,Asia,20.6667,77.0833
AKE,Akieni,526,Akieni,,Gabon,Africa,-1.1722,13.9167
AKF,Kufra,538,Kufra,,Libya,Africa,24.2,23.3333
AKG,Anguganak,804,Anguganak,,Papua New Guinea,Australasia,-3.5833,142.25
AKH,Prince Sultan Air Base,670,Al Kharj,,Saudi Arabia,Middle East,24.0633,47.5806
AKI,Akiak,1,Akiak,Alaska,United States,North America,60.9056,-161.2233
AKJ,Asahikawa,736,Asahikawa,,Japan,Asia,43.6708,142.4514
AKK,Akhiok,1,Akhiok,Alaska,United States,North America,56.945,-154.1667
AKL,Auckland Intl,851,Auckland,,New Zealand,Australasia,-37.0111,174.7992
AKM,Zakouma Airport,511,Zakouma,,Chad,Africa,10.8833,19.8167
AKN,King Salmon,1,King Salmon,Alaska,United States,North America,58.6786,-156.6494
AKO,Colorado Plains Regional Airport,82,Akron,Colorado,United States,North America,40.1667,-103.2167
AKP,Anaktuvuk Pass,1,Anaktuvuk Pass,Alaska,United States,North America,68.1375,-151.74
AKQ,Astra Ksetra,732,Menggala,,Indonesia,Asia,-4.6167,105.2333
AKR,Akure Airport,555,Akure,,Nigeria,Africa,7.25,5.0833
AKS,Gwaunaru'U,874,Auki,,Solomon Islands,Australasia,-8.6978,160.6808
AKT,Akrotiri RAF Station,611,Akrotiri,,Cyprus,Europe,34.5906,32.9878
AKU,Aksu,713,Aksu,,China,Asia,38.6667,75.6667
AKV,Akulivik,941,Akulivik,Quebec,Canada,North America,60.7333,-78.5833
AKW,Aghajari Airport,632,Aghajari,,Iran,Middle East,30.75,49.6833
AKX,Aktobe,738,Aktobe,,Kazakhstan,Asia,50.25,57.2167
AKY,Sittwe Airport,706,Sittwe,,Myanmar,Asia,20.1303,92.8803
ALA,Almaty International,738,Almaty,,Kazakhstan,Asia,43.35,77.0333
ALB,Albany International,22,Albany,New York,United States,North America,42.7458,-73.8053
ALC,Alicante Airport,482,Alicante,,Spain,Europe,38.2825,-0.5583
ALD,Alerta,368,Alerta,,Peru,South America,-11.7,-69.35
ALE,Casparis Municipal,74,Alpine,Texas,United States,North America,30.4167,-103.75
ALF,Alta,465,Alta,,Norway,Europe,69.9761,23.3806
ALG,Houari Boumediene,500,Algiers,,Algeria,Africa,36.6933,3.2172
ALH,Albany,802,Albany,Western Australia,Australia,Australasia,-34.945,117.8058
ALI,Alice International,74,Alice,Texas,United States,North America,27.7333,-98.0167
ALJ,Kortdoorn,562,Alexander Bay,,South Africa,Africa,-28.5672,16.5364
ALK,Asela,522,Asela,,Ethiopia,Africa,7.9667,39.1167
ALL,Albenga,450,Albenga,,Italy,Europe,44.0333,8.1167
ALM,White Sands Regional,86,Alamogordo,New Mexico,United States,North America,32.8397,-105.99
ALN,St Louis Regional,41,Alton,Illinois,United States,North America,38.895,-90.0544
ALO,Waterloo Municipal,61,Waterloo,Iowa,United States,North America,42.5561,-92.3997
ALP,Nejrab International,676,Aleppo,,Syria,Middle East,36.1808,37.2267
ALQ,G.Machado Ramos,316,Alegrete,Rio Grande do Sul,Brazil,South America,-29.7997,-55.7633
ALR,Alexandra Airport,851,Alexandra,,New Zealand,Australasia,-45.2139,169.3694
ALS,San Luis Valley Rgnl,82,Alamosa,Colorado,United States,North America,37.4367,-105.8667
ALT,Alenquer,316,Alenquer,Para,Brazil,South America,-1.94,-54.7417
ALU,Alula Airport,573,Alula,,Somalia,Africa,11.9667,50.8
ALV,Off-line Point,402,Andorra La Vella,,Andorra,Europe,42.5167,1.5333
ALW,Walla Walla Regional,93,Walla Walla,Washington,United States,North America,46.0947,-118.2911
ALX,Thomas C Russell Field,51,Alexander City,Alabama,United States,North America,32.9333,-85.95
ALY,El Nouzha,591,Alexandria,,Egypt,Africa,31.1878,29.9481
ALZ,Alitak Spb,1,Alitak,Alaska,United States,North America,56.8958,-154.2458
AMA,Rick Husband Intl,74,Amarillo,Texas,United States,North America,35.2272,-101.7219
AMB,Ambilobe,541,Ambilobe,,Madagascar,Africa,-13.1833,48.9833
AMC,Am Timan,511,Am Timan,,Chad,Africa,11.0333,20.2833
AMD,S. VallabhBhai Patel,733,Ahmedabad,,India,Asia,23.0664,72.6242
AME,Alto Molocue,550,Alto Molocue,,Mozambique,Africa,-15.65,37.6833
AMF,Ama,804,Ama,,Papua New Guinea,Australasia,-4.1667,143.5
AMG,Amboin Airport,804,Amboin,,Papua New Guinea,Australasia,-4.6167,143.7
AMH,Arba Mintch,522,Arba Mintch,,Ethiopia,Africa,6.0361,37.5769
AMI,Selaparang,732,Mataram,,Indonesia,Asia,-8.56,116.0969
AMJ,Cirilo Queiroz,316,Almenara,Minas Gerais,Brazil,South America,-16.1833,-40.6833
AMK,Animas Airpark,82,Durango,Colorado,United States,North America,37.2039,-107.8686
AML,Puerto Armuelles Airport,162,Puerto Armuelles,,Panama,Central America,8.2667,-82.8667
AMM,Queen Alia Intl,639,Amman,,Jordan,Middle East,31.717,36
AMN,Gratiot Community,43,Alma,Michigan,United States,North America,43.3222,-84.6894
AMO,Mao Airport,511,Mao,,Chad,Africa,14.1167,15.3167
AMP,Ampanihy,541,Ampanihy,,Madagascar,Africa,-24.6994,44.7331
AMQ,Pattimura,732,Ambon,,Indonesia,Asia,-2.3,128.0833
AMR,Railway Station,482,Almeria,,Spain,Europe,36.8344,-2.4561
AMS,Schiphol,461,Amsterdam,,Netherlands,Europe,52.3083,4.7681
AMT,Amata Airport,802,Amata,South Australia,Australia,Australasia,-26.7667,132.0333
AMU,Amanab,804,Amanab,,Papua New Guinea,Australasia,-3.5167,141.25
AMV,Amderma,475,Amderma,Northwestern Federal District,Russian Federation,Europe,69.7667,61.55
AMW,Ames,61,Ames,Iowa,United States,North America,41.9942,-93.6183
AMX,Ammaroo,802,Ammaroo,Northern Territory,Australia,Australasia,-21.74,135.24
AMY,Ambatomainty,541,Ambatomainty,,Madagascar,Africa,-17.6833,45.6667
AMZ,Ardmore,851,Ardmore,,New Zealand,Australasia,-37.0333,174.9694
ANA,Anaheim,91,Anaheim,California,United States,North America,33.8167,-117.9333
ANB,Anniston Regional,51,Anniston,Alabama,United States,North America,33.5903,-85.8558
ANC,Ted Stevens Intl,1,Anchorage,Alaska,United States,North America,61.1692,-149.9853
AND,Anderson County,37,Anderson,South Carolina,United States,North America,34.4936,-82.71
ANE,Marce Airport,427,Angers,,France,Europe,47.4978,-0.5742
ANF,Cerro Moreno,324,Antofagasta,,Chile,South America,-23.4394,-70.4428
ANG,Angouleme-Brie-Champniers,427,Angouleme,,France,Europe,45.7294,0.2197
ANH,Anuha Island Resort Airport,874,Anuha Island Resort,,Solomon Islands,Australasia,-8.9833,160.5
ANI,Aniak,1,Aniak,Alaska,United States,North America,61.5808,-159.5353
ANJ,Zanaga,515,Zanaga,,Congo,Africa,-2.85,13.8333
ANK,Etimesgut,679,Ankara-Metro,,Turkey,Europe,39.9547,32.6953
ANL,Andulo Airport,502,Andulo,,Angola,Africa,-11.25,17.25
ANM,Antsirabato,541,Antalaha,,Madagascar,Africa,-15,50.3333
ANN,Annette Island,1,Annette Island,Alaska,United States,North America,55.0369,-131.5706
ANO,Angoche Airport,550,Angoche,,Mozambique,Africa,-16.1778,39.9369
ANP,Lee Airport,35,Annapolis,Maryland,United States,North America,38.9833,-76.5
ANQ,Tri-State Steuben Co.,42,Angola,Indiana,United States,North America,41.6333,-85
ANR,Antwerp International,409,Antwerp,,Belgium,Europe,51.19,4.46
ANS,Andahuaylas,368,Andahuaylas,,Peru,South America,-13.7167,-73.3558
ANT,St. Anton Heliport,403,Saint Anton,,Austria,Europe,47.1208,10.2417
ANU,V C Bird Intl,206,Antigua,,Antigua and Barbuda,Caribbean,17.1375,-61.79
ANV,Anvik,1,Anvik,Alaska,United States,North America,62.6478,-160.1889
ANW,Ainsworth Airport,65,Ainsworth,Nebraska,United States,North America,42.55,-99.8667
ANX,Andoya,465,Andenes,,Norway,Europe,69.2931,16.1417
ANY,Anthony,62,Anthony,Kansas,United States,North America,37.15,-98.0333
ANZ,Angus Downs Station,802,Angus Downs Station,Northern Territory,Australia,Australasia,-25.0833,132.1667
AOA,Aroa Airport,804,Aroa,,Papua New Guinea,Australasia,-9.05,146.8
AOB,Annanberg Airport,804,Annanberg,,Papua New Guinea,Australasia,-4.9167,144.65
AOC,Altenburg Nobitz Airport,429,Altenburg,,Germany,Europe,50.9833,12.45
AOD,Abou Deia Airport,511,Abou Deia,,Chad,Africa,11.4747,19.2889
AOE,Anadolu University Airport,679,Eskisehir,,Turkey,Europe,39,30.5
AOG,Teng'ao,713,Anshan,,China,Asia,41.1667,123.0333
AOH,Allen County,44,Lima,Ohio,United States,North America,40.7086,-84.0275
AOI,Falconara,450,Ancona,,Italy,Europe,43.6175,13.3642
AOJ,Aomori,736,Aomori,,Japan,Asia,40.7394,140.7014
AOK,Karpathos,433,Karpathos,,Greece,Europe,35.4214,27.1461
AOL,Paso De Los Libres,303,Paso De Los Libres,Corrientes,Argentina,South America,-29.69,-57.1486
AOM,Adam Airport,658,Adam,,Oman,Middle East,22.4972,57.3833
AON,Arona Airport,804,Arona,,Papua New Guinea,Australasia,-6.3333,146
AOO,Blair County,23,Altoona,Pennsylvania,United States,North America,40.2972,-78.32
AOP,Alfredo V. Sara Bauer,368,Andoas,,Peru,South America,-2.6914,-76.4747
AOQ,Aappilattoq Heliport,975,Aappilattoq-Upernavik,,Greenland,North America,72.8869,-55.5961
AOR,Sultan Abdul Halim,749,Alor Setar,,Malaysia,Asia,6.1911,100.4039
AOS,Amook Bay Sea Plane Base,1,Amook Bay,Alaska,United States,North America,57.4547,-153.8131
AOT,Corrado Gex Airport,450,Aosta,,Italy,Europe,45,7
AOU,Attopeu,744,Attopeu,,Laos,Asia,14.8,106.8167
AOY,Asaloyeh Airport,632,Asaloyeh,,Iran,Middle East,27.4667,52.6167
APA,Centennial,82,Denver,Colorado,United States,North America,39.5728,-104.8478
APB,Apolo Airport,312,Apolo,,Bolivia,South America,-14.7167,-68.5167
APC,Napa County,91,Napa,California,United States,North America,38.2122,-122.28
APE,San Juan Aposento Airport,368,San Juan Aposento,,Peru,South America,-11.9333,-69.0833
APF,Naples Municipal,33,Naples,Florida,United States,North America,26.1528,-81.7753
APG,Phillips Aaf,35,Aberdeen,Maryland,United States,North America,39.4661,-76.17
APH,Camp A P Hill,38,Bowling Green,Virginia,United States,North America,38.05,-77.35
API,Luis F. Gomez Nino AB,327,Apiay,,Colombia,South America,4.0689,-73.0519
APK,Apataki,823,Apataki,,French Polynesia,Australasia,-15.5741,-146.4145
APL,Nampula,550,Nampula,,Mozambique,Africa,-15.1017,39.2872
APN,Alpena County Regional,43,Alpena,Michigan,United States,North America,45.0817,-83.5558
APO,Carepa-A.R. Betancourt,327,Apartado,,Colombia,South America,7.0333,-77.2
APP,Asapa,804,Asapa,,Papua New Guinea,Australasia,-8.9833,148.1333
APQ,Arapiraca,316,Arapiraca,Alagoas,Brazil,South America,-9.75,-36.65
APR,April River,804,April River,,Papua New Guinea,Australasia,-4.7,142.5333
APS,Anapolis,316,Anapolis,Goias,Brazil,South America,-16.3333,-48.9667
APT,Marion County Airport,54,Jasper,Tennessee,United States,North America,35.0667,-85.5
APU,Captain Joao Busse,316,Apucarana,Parana,Brazil,South America,-23.55,-51.4833
APV,Apple Valley,91,Apple Valley,California,United States,North America,34.5264,-117.2128
APW,Faleolo Intl,892,Apia,,Western Samoa,Australasia,-13.8333,-172
APX,Alberto Bertelli,316,Arapongas,Parana,Brazil,South America,-23.3833,-51.95
APY,Alto Parnaiba Airport,316,Alto Parnaiba,Maranhao,Brazil,South America,-9.1333,-45.9333
APZ,Zapala,303,Zapala,Neuquen,Argentina,South America,-38.9167,-70.0833
AQA,Bartolomeu de Gusmao,316,Araraquara,Sao Paulo,Brazil,South America,-21.7833,-48.1667
AQB,Quiche,127,Quiche,,Guatemala,Central America,15.0122,-91.1505
AQG,Tianzhushan,713,Anqing,,China,Asia,30.5167,117.0333
AQI,Hafar al Batin Airport,670,Qaisumah,,Saudi Arabia,Middle East,28.3281,46.1306
AQJ,King Hussein International,639,Aqaba,,Jordan,Middle East,29.6125,35.0194
AQL,Bus Station,482,Almeria,,Spain,Europe,36.8353,-2.455
AQM,Ariquemes Airport,316,Ariquemes,Rondonia,Brazil,South America,-9.9333,-63.0667
AQP,Rodriguez Ballon Intl,368,Arequipa,,Peru,South America,-16.3378,-71.555
AQS,Saqani Airport,821,Saqani,,Fiji,Australasia,-17,170.9
AQY,Girdwood,1,Girdwood,Alaska,United States,North America,60.9667,-149.1167
ARA,Acadiana Regional,72,New Iberia,Louisiana,United States,North America,30.0375,-91.8839
ARB,Ann Arbor Municipal Airport,43,Ann Arbor,Michigan,United States,North America,42.3,-83.75
ARC,Arctic Village,1,Arctic Village,Alaska,United States,North America,68.1375,-145.5244
ARD,Mali,732,Alor,,Indonesia,Asia,-8.1313,124.5979
ARE,Antonio Juarbe Pol,3,Arecibo,Puerto Rico,United States,North America,18.4503,-66.6758
ARF,Acaricuara Airport,327,Acaricuara,,Colombia,South America,0.5333,-70.1333
ARG,Walnut Ridge Regional,71,Walnut Ridge,Arkansas,United States,North America,36.0667,-90.95
ARH,Talagi,475,Arkhangelsk ,Northwestern Federal District,Russian Federation,Europe,64.5667,40.5333
ARI,Chacalluta,324,Arica,,Chile,South America,-18.3331,-70.3381
ARJ,Arso Airport,732,Arso,,Indonesia,Asia,-2.9333,140.7833
ARK,Arusha,585,Arusha,,Tanzania,Africa,-3.3642,36.6247
ARL,Arly,593,Arly,,Burkina Faso,Africa,11.5833,1.25
ARM,Armidale,802,Armidale,New South Wales,Australia,Australasia,-30.5283,151.6233
ARN,Arlanda,484,Stockholm-Arlanda,,Sweden,Europe,59.6619,17.9339
ARO,Arboletes,327,Arboletes,,Colombia,South America,8.8667,-76.4333
ARP,Aragip,804,Aragip,,Papua New Guinea,Australasia,-9.8706,149.4836
ARQ,El Troncal,327,Arauquita,,Colombia,South America,7.0331,-71.4317
ARR,Alto Rio Senguer,303,Alto Rio Senguer,Chubut,Argentina,South America,-45.1667,-71
ARS,Aragarcas,316,Aragarcas,Goias,Brazil,South America,-15.9,-52.2333
ART,Watertown Municipal,22,Watertown,New York,United States,North America,43.9908,-76.0214
ARU,Dario Guarita,316,Aracatuba,Sao Paulo,Brazil,South America,-21.1436,-50.4261
ARV,Lakeland,45,Minocqua/Woodruff,Wisconsin,United States,North America,45.9242,-89.7322
ARW,Arad,473,Arad,,Romania,Europe,46.1833,21.2667
ARX,Asbury Park,21,Asbury Pk/Monmouth C,New Jersey,United States,North America,40.2167,-74.1
ARY,Ararat Airport,802,Ararat,Victoria,Australia,Australasia,-37.3167,143
ARZ,N'zeto Airport,502,N'zeto,,Angola,Africa,-7.5,13.5
ASA,Assab International,523,Assab,,Eritrea,Africa,13.07,42.6383
ASB,Ashgabat International,785,Ashgabat,,Turkmenistan,Asia,37.9817,58.3608
ASC,Ascension,312,Ascension,,Bolivia,South America,-15.9167,-63.15
ASD,Andros Town International,204,Andros Town,,Bahamas,Caribbean,24.6978,-77.7961
ASE,Pitkin County,82,Aspen,Colorado,United States,North America,39.2242,-106.8689
ASF,Astrakhan,475,Astrakhan,Southern Federal District,Russian Federation,Europe,46.35,48.05
ASG,Ashburton Airport,851,Ashburton,,New Zealand,Australasia,-43.9,171.7833
ASH,Boire Field,14,Nashua,New Hampshire,United States,North America,42.7789,-71.5094
ASI,RAF Station,580,Ascension Island,,Saint Helena,Africa,-7.9703,-14.3936
ASJ,Amami,736,Amami,,Japan,Asia,28.4169,129.6975
ASK,Yamoussoukro,533,Yamoussoukro,,Ivory Coast (Cote d'Ivoire),Africa,6.9056,-5.3642
ASL,Harrison County,74,Marshall,Texas,United States,North America,32.5217,-94.3081
ASM,Asmara International,523,Asmara,,Eritrea,Africa,15.2911,38.9103
ASN,Talladega Municipal,51,Talladega,Alabama,United States,North America,33.5697,-86.0508
ASO,Asosa,522,Asosa,,Ethiopia,Africa,10.0472,34.5367
ASP,Alice Springs Airport,802,Alice Springs,Northern Territory,Australia,Australasia,-23.8033,133.8842
ASQ,Austin Airport,85,Austin,Nevada,United States,North America,39.4667,-117.1667
ASR,Erkilet,679,Kayseri,,Turkey,Europe,38.7042,35.5097
ASS,Arathusa Safari Lodge,562,Arathusa Safari Lodge,,South Africa,Africa,-24.7406,31.5181
AST,Regional,92,Astoria,Oregon,United States,North America,46.1597,-123.88
ASU,Silvio Pettirossi Intl,365,Asuncion,,Paraguay,South America,-25.2392,-57.5192
ASV,Amboseli,535,Amboseli,,Kenya,Africa,-2.6333,37.25
ASW,International,591,Aswan,,Egypt,Africa,23.965,32.8217
ASX,John F. Kennedy Mem.,45,Ashland,Wisconsin,United States,North America,46.55,-90.9167
ASY,Ashley Municipal,66,Ashley,North Dakota,United States,North America,46.0333,-99.3667
ASZ,Asirim Airport,804,Asirim,,Papua New Guinea,Australasia,-5.8667,150.3667
ATA,German Arias Graziani,368,Huaraz,,Peru,South America,-9.3472,-77.6
ATB,Atbara,583,Atbara,,Sudan,Africa,17.7167,34.0167
ATC,Arthur's Town,204,Arthur's Town,,Bahamas,Caribbean,24.6286,-75.6714
ATD,Atoifi,874,Atoifi,,Solomon Islands,Australasia,-8.8667,161.0333
ATE,Antlers Municipal,73,Antlers,Oklahoma,United States,North America,34.1928,-95.6497
ATF,Chachoan Airport,337,Ambato,,Ecuador,South America,-1.0833,-78.7
ATG,Minhas Airport,764,Attock,,Pakistan,Asia,33.9,72.25
ATH,Eleftherios Venizelos Airport,433,Athens,,Greece,Europe,37.9364,23.9444
ATI,Artigas Airport,385,Artigas,,Uruguay,South America,-30.4,-56.5083
ATJ,Antsirabe Airport,541,Antsirabe,,Madagascar,Africa,-19.85,47.0167
ATK,E.Burnell Sr Memorial,1,Atqasuk,Alaska,United States,North America,70.4681,-157.3944
ATL,Hartsfield-Jackson ATL,34,Atlanta,Georgia,United States,North America,33.6408,-84.4272
ATM,Altamira,316,Altamira,Para,Brazil,South America,-3.2,-52.2167
ATN,Namatanai,804,Namatanai,,Papua New Guinea,Australasia,-3.6714,152.4364
ATO,Ohio University,44,"Athens, Oh",Ohio,United States,North America,39.2108,-82.231
ATP,Aitape Airstrip,804,Aitape,,Papua New Guinea,Australasia,-3.1333,142.35
ATQ,Sri Guru Ram Dass Jee,733,Amritsar,,India,Asia,31.7069,74.7972
ATR,Atar International,545,Atar,,Mauritania,Africa,20.4994,-13.0464
ATS,Municipal,86,Artesia,New Mexico,United States,North America,32.8483,-104.4669
ATT,Atmautluak,1,Atmautluak,Alaska,United States,North America,60.8597,-162.2789
ATU,Casco Cove CGS,1,Attu Island,Alaska,United States,North America,52.8258,173.1728
ATV,Ati Airport,511,Ati,,Chad,Africa,13.2422,18.3075
ATW,Outagamie County Regional,45,Appleton,Wisconsin,United States,North America,44.2578,-88.52
ATX,Atbasar Airport,738,Atbasar,,Kazakhstan,Asia,51.8833,68.4
ATY,Watertown Regional,67,Watertown,South Dakota,United States,North America,44.9089,-97.1542
ATZ,Asyut,591,Asyut,,Egypt,Africa,27.05,31.0167
AUA,Reina Beatrix,277,Aruba,,Aruba,Caribbean,12.5022,-70.0139
AUB,Augsburg Bus Station,429,Munich,,Germany,Europe,48.4017,10.8769
AUC,Santiago Perez Quiroz,327,Arauca,,Colombia,South America,7.0717,-70.7425
AUD,Augustus Downs,802,Augustus Downs,Queensland,Australia,Australasia,-18.5069,139.8817
AUE,Abu Rudeis Airport,591,Abu Rudeis,,Egypt,Africa,28.9,33.1833
AUF,Aeroport Auxerre Branches,427,Auxerre,,France,Europe,47.85,3.5
AUG,Augusta State,12,Augusta,Maine,United States,North America,44.3181,-69.7967
AUH,Abu Dhabi Intl,678,Abu Dhabi,,United Arab Emirates,Middle East,24.4331,54.6489
AUI,Aua Island Airport,804,Aua Island,,Papua New Guinea,Australasia,-1.4583,143.075
AUJ,Ambunti,804,Ambunti,,Papua New Guinea,Australasia,-4.25,142.85
AUK,Alakanuk,1,Alakanuk,Alaska,United States,North America,62.6892,-164.6108
AUL,Aur,844,Aur,,Marshall Islands,Australasia,8.1333,171.1667
AUM,Austin Municipal,63,Austin,Minnesota,United States,North America,43.6644,-92.9339
AUN,Auburn Municipal,91,Auburn,California,United States,North America,38.9,-121.0667
AUO,Auburn-Opelika Airport,51,Auburn,Alabama,United States,North America,32.6333,-85.5
AUP,Agaun,804,Agaun,,Papua New Guinea,Australasia,-9.9167,149.3333
AUQ,Atuona,823,Hiva Oa,,French Polynesia,Australasia,-9.7667,-139.0167
AUR,Aurillac,427,Aurillac,,France,Europe,44.8975,2.4181
AUS,Austin-Bergstrom International Airport,74,Austin,Texas,United States,North America,30.1945,-97.6699
AUT,Atauro,862,Atauro,,East Timor,Australasia,-8,125.675
AUU,Aurukun,802,Aurukun,Queensland,Australia,Australasia,-13.35,141.7167
AUV,Aumo Airport,804,Aumo,,Papua New Guinea,Australasia,-5.7166,148.4333
AUW,Downtown Apt,45,Wausau,Wisconsin,United States,North America,44.9233,-89.6231
AUX,Araguaina,316,Araguaina,Tocantins,Brazil,South America,-7.2,-48.2
AUY,Anatom Island,885,Anatom Island,,Vanuatu,Australasia,-20.2533,169.7614
AUZ,Aurora,41,Aurora,Illinois,United States,North America,41.7667,-88.3167
AVA,Huangguoshu,713,Anshun,,China,Asia,26.2572,105.8728
AVB,Aviano Ab,450,Aviano,,Italy,Europe,46.0319,12.5972
AVF,Off-line Point,427,Avoriaz,,France,Europe,46.2,6.7667
AVG,Auvergne Station,802,Auvergne Station,Northern Territory,Australia,Australasia,-15.75,129.9167
AVI,Maximo Gomez,219,Ciego De Avila,,Cuba,Caribbean,22.025,-78.7914
AVJ,Avila Bus Station,482,Avila,,Spain,Europe,40.6572,-4.6889
AVK,Arvaikheer Airport,751,Arvaikheer,,Mongolia,Asia,46.1667,102.4667
AVL,Asheville Regional,36,Asheville,North Carolina,United States,North America,35.435,-82.5411
AVN,Caumont,427,Avignon,,France,Europe,43.9,4.9
AVO,Avon Park Municipal,33,Avon Park,Florida,United States,North America,27.5925,-81.5269
AVP,Wilkes-Barre/Scranton International Airport,23,Wilkes-Barre/Scranton,Pennsylvania,United States,North America,41.3392,-75.7258
AVS,Railway Station,482,Avila,,Spain,Europe,40.6569,-4.6833
AVU,Avu Avu,874,Avu Avu,,Solomon Islands,Australasia,-9.85,160.4167
AVV,Avalon,802,Melbourne,Victoria,Australia,Australasia,-38.0408,144.4681
AVW,Marana Regional Airport,81,Tucson,Arizona,United States,North America,32.4167,-111.2167
AVX,Avalon Bay Airport,91,Catalina Island,California,United States,North America,33.3417,-118.3153
AWA,Awasa Airport,522,Awasa,,Ethiopia,Africa,7.0611,38.4875
AWB,Awaba,804,Awaba,,Papua New Guinea,Australasia,-8.0167,142.75
AWD,Aniwa Island,885,Aniwa Island,,Vanuatu,Australasia,-19.2833,169.5833
AWE,Alowe,526,Alowe,,Gabon,Africa,-0.75,9.45
AWH,Awareh Airport,522,Awareh,,Ethiopia,Africa,8.2667,44.1833
AWK,Wake Island,888,Wake Island,,United States Minor Outlying Islands,Australasia,19.28,166.6403
AWM,West Memphis Municipal Airport,71,West Memphis,Arkansas,United States,North America,35.1333,-90.1833
AWN,Alton Downs Airport,802,Alton Downs,South Australia,Australia,Australasia,-26.25,138.6667
AWP,Austral Downs Station,802,Austral Downs Station,Northern Territory,Australia,Australasia,-20.5,137.75
AWR,Awar Airport,804,Awar,,Papua New Guinea,Australasia,-4.1242,144.8703
AWZ,Ahwaz,632,"Ahwaz, Iran",,Iran,Middle East,31.3378,48.7597
AXA,Clayton J. Lloyd International,202,Anguilla,,Anguilla,Caribbean,18.2103,-63.0575
AXB,"Alexandria Bay, Ny",22,"Alexandria Bay, Ny",New York,United States,North America,44.25,-75.9
AXC,Aramac,802,Aramac,Queensland,Australia,Australasia,-22.9581,145.2425
AXD,Dimokritos,433,Alexandroupolis,,Greece,Europe,40.855833,25.956389
AXE,Joao Winckler,316,Xanxere,Santa Catarina,Brazil,South America,-26.8833,-52.3833
AXF,Alxa Left Banner,713,Alxa Left Banner,,China,Asia,38.7478,105.5836
AXG,Algona Airport,61,Algona,Iowa,United States,North America,43.0667,-94.2333
AXJ,Amakusa,736,Amakusa,,Japan,Asia,32.4822,130.1589
AXK,"Ataq, Yemen",694,"Ataq, Yemen",,Yemen,Middle East,14.5511,46.8261
AXL,Alexandria Station,802,Alexandria Station,Northern Territory,Australia,Australasia,-19.0833,136.6666
AXM,El Eden International,327,Armenia,,Colombia,South America,4.4564,-75.7681
AXN,Chandler Field,63,Alexandria,Minnesota,United States,North America,45.8672,-95.3942
AXP,Spring Point,204,Spring Point,,Bahamas,Caribbean,22.45,-73.9667
AXR,Arutua,823,Arutua,,French Polynesia,Australasia,-15.35,-146.6667
AXS,Quartz Mountain Regional,73,Altus,Oklahoma,United States,North America,34.6967,-99.3381
AXT,Akita,736,Akita,,Japan,Asia,39.6157,140.217
AXU,Axum,522,Axum,,Ethiopia,Africa,14.1208,38.7167
AXV,Neil Armstrong Airport,44,Wapakoneta,Ohio,United States,North America,40.5667,-84.2
AXX,Angel Fire Airport,86,Angel Fire,New Mexico,United States,North America,36.4167,-105.2833
AYA,El Cebruno Airport,327,Ayapel,,Colombia,South America,8.3167,-75.15
AYC,La Gloria Airport,327,Ayacucho,,Colombia,South America,8.6,-73.6167
AYD,Alroy Downs,802,Alroy Downs,Northern Territory,Australia,Australasia,-19.3,135.95
AYE,Army Air Field Heliport,13,Fort Devens,Massachusetts,United States,North America,42.55,-71.6
AYG,Yaguara II,327,Yaguara II,,Colombia,South America,2.6667,-75.5167
AYH,Royal Air Force Station,493,Alconbury,England,United Kingdom,Europe,52.3667,-1.05
AYI,Yari Airport,327,Yari,,Colombia,South America,-0.3333,-72.3333
AYK,Arkalyk Airport,738,Arkalyk,,Kazakhstan,Asia,50.3167,66.9667
AYL,Anthony Lagoon,802,Anthony Lagoon,Northern Territory,Australia,Australasia,-18.0167,135.55
AYM,Yas Island SPB,678,Abu Dhabi,,United Arab Emirates,Middle East,24.4539,54.6017
AYN,Anyang Airport,713,Anyang,,China,Asia,36.1,114.35
AYO,Juan de Ayolas Airport,365,Ayolas,,Paraguay,South America,-27.3667,-56.85
AYP,Alfredo M. Duarte,368,Ayacucho,,Peru,South America,-13.1333,-74.2
AYQ,Connellan,802,Ayers Rock,Northern Territory,Australia,Australasia,-25.3361,131.0467
AYR,Ayr,802,Ayr,Queensland,Australia,Australasia,-19.5967,147.3244
AYS,Ware County,34,Waycross,Georgia,United States,North America,31.2492,-82.3956
AYT,Antalya,679,Antalya,,Turkey,Europe,36.9056,30.7906
AYU,Aiyura Airport,804,Aiyura,,Papua New Guinea,Australasia,-6.3333,145.9
AYW,Ayawasi,732,Ayawasi,,Indonesia,Asia,-1.1417,132.4783
AYY,Arugam Bay SPB,711,Pottuvil,,Sri Lanka,Asia,6.855,81.8311
AYZ,Zahns Airport,22,Amityville,New York,United States,North America,40.6667,-73.4167
AZA,Mesa Gateway Airport,81,Phoenix,Arizona,United States,North America,33.3078,-111.6554
AZB,Amazon Bay,804,Amazon Bay,,Papua New Guinea,Australasia,-10.3,149.3333
AZD,Shahid Sadooghi,632,Yazd,,Iran,Middle East,31.8978,54.2817
AZG,Pablo L. Sidar,148,Apatzingan,,Mexico,North America,19.0681,-102.3528
AZI,Bateen Airport,678,Abu Dhabi,,United Arab Emirates,Middle East,24.4192,54.4517
AZL,Fazenda Tucunare Airport,316,Mato Grosso,Mato Grosso,Brazil,South America,-13.4725,-58.8508
AZM,Bus Station,747,Macau,,Macau,Asia,22.1972,114.5406
AZN,Andizhan,788,Andizhan,,Uzbekistan,Asia,40.7333,72.3
AZO,Kalamazoo/Battle Creek International,43,Kalamazoo/Battle Creek,Michigan,United States,North America,42.2364,-85.5536
AZP,Atizapan-Jimenez Cantu Airport,148,Mexico City,,Mexico,North America,19.4167,-99.1
AZR,Touat,500,Adrar,,Algeria,Africa,27.8833,-0.2833
AZS,EL Catey Intl,224,Samana,,Dominican Republic,Caribbean,19.2706,-69.7369
AZT,Zapatoca Airport,327,Zapatoca,,Colombia,South America,6.8667,-73.25
AZZ,Ambriz,502,Ambriz,,Angola,Africa,-7.8833,13.15
BAA,Bialla,804,Bialla,,Papua New Guinea,Australasia,-5.3167,151.0333
BAB,Beale Air Force Base,91,Marysville,California,United States,North America,39.15,-121.5833
BAC,Guadalito Airport,327,Barranca De Upia,,Colombia,South America,4.5833,-72.9667
BAD,Barksdale Air Force Base,72,Shreveport,Louisiana,United States,North America,32.5,-93.6667
BAE,St-Pons,427,Barcelonnette,,France,Europe,44.3833,6.6333
BAF,Barnes Municipal,13,Westfield,Massachusetts,United States,North America,42.16,-72.7164
BAG,Loakan,766,Baguio,,Philippines,Asia,16.3767,120.6178
BAH,Bahrain Intl,605,Bahrain,,Bahrain,Middle East,26.2708,50.6375
BAI,Buenos Aires,110,Buenos Aires,,Costa Rica,Central America,9.1667,-83.3333
BAJ,Bali,804,Bali,,Papua New Guinea,Australasia,-4.8833,149.1333
BAK,Baku,407,Baku,,Azerbaijan,Asia,40.5,49.9833
BAL,Batman,679,Batman,,Turkey,Europe,37.93,41.1167
BAM,Lander County,85,Battle Mountain,Nevada,United States,North America,40.5975,-116.8722
BAN,Basongo,517,Basongo,,Democratic Republic of the Congo,Africa,-4.3133,20.4281
BAO,Udorn,782,Ban Mak Khaeng,,Thailand,Asia,17.385,102.7928
BAP,Baibara Airport,804,Baibara,,Papua New Guinea,Australasia,-10.3333,149.75
BAQ,Ernesto Cortissoz International,327,Barranquilla,,Colombia,South America,10.8961,-74.7789
BAR,Baker Aaf,1,Baker Island,Alaska,United States,North America,55.3667,-133.6
BAS,Balalae,874,Balalae,,Solomon Islands,Australasia,-6.992,155.8849
BAT,Chafei Amsei,316,Barretos,Sao Paulo,Brazil,South America,-20.585,-48.5953
BAU,Central Railway Station,450,Bari,,Italy,Europe,41.1178,16.8694
BAV,Erliban,713,Baotou,,China,Asia,40.6667,109.9833
BAW,Biawonque Airport,526,Biawonque,,Gabon,Africa,-0.6667,146.35
BAX,Barnaul,475,Barnaul,Siberian Federal District,Russian Federation,Asia,53.3667,83.75
BAY,Baia Mare,473,Baia Mare,,Romania,Europe,47.65,23.4667
BAZ,Barcelos,316,Barcelos,Amazonas,Brazil,South America,-0.9669,-62.9336
BBA,Balmaceda,324,Balmaceda,,Chile,South America,-45.9167,-71.695
BBB,Benson Municipal,63,Benson,Minnesota,United States,North America,45.3167,-95.6
BBC,Bay City Municipal,74,Bay City,Texas,United States,North America,28.9833,-95.9667
BBD,Curtis Field,74,Brady,Texas,United States,North America,31.1333,-99.3333
BBE,Buenos Aires Fluvial Bus Station,385,Buenos Aires,,Uruguay,South America,-34.9569,-54.9389
BBF,Burlington Airport,13,Burlington,Massachusetts,United States,North America,42.5,-71.1833
BBG,Butaritari,824,Butaritari,,Kiribati,Australasia,3.0833,172.8167
BBH,Barth Airport,429,Stralsund,,Germany,Europe,54.3397,12.7117
BBI,Biju Patnaik,733,Bhubaneshwar,,India,Asia,20.2436,85.82
BBJ,Bitburg Air Base,429,Bitburg,,Germany,Europe,49.9667,6.5167
BBK,Kasane,510,Kasane,,Botswana,Africa,-17.7833,25.1667
BBL,Ballera,802,Ballera,Queensland,Australia,Australasia,-27.4111,141.8083
BBM,Battambang,709,Battambang,,Cambodia,Asia,13.0833,103.2167
BBN,"Bario, Sarawak",749,"Bario, Sarawak",,Malaysia,Asia,3.6833,115.4667
BBO,Berbera,573,Berbera,,Somalia,Africa,10.3917,44.95
BBP,Bembridge Airport,493,Bembridge,England,United Kingdom,Europe,50.6833,-1.0833
BBQ,Codrington Airport,206,Barbuda,,Antigua and Barbuda,Caribbean,17.5556,-61.765
BBR,Baillif Airport,235,Basse Terre,,Guadeloupe,Caribbean,16.0164,-61.7394
BBS,Blackbushe,493,Blackbushe,England,United Kingdom,Europe,51.3306,-0.8444
BBT,Berberati,509,Berberati,,Central African Republic,Africa,4.2192,15.7881
BBU,Baneasa - Aurel Vlaicu,473,Bucharest-Baneasa,,Romania,Europe,44.5,26.1
BBV,Nero-Mer,533,Grand Bereby,,Ivory Coast (Cote d'Ivoire),Africa,4.6667,-6.95
BBW,Broken Bow Airport,65,Broken Bow,Nebraska,United States,North America,41.4,-99.6333
BBX,Wings Field,23,Blue Bell,Pennsylvania,United States,North America,40.1367,-75.2675
BBY,Bambari Airport,509,Bambari,,Central African Republic,Africa,5.8458,20.6497
BBZ,Zambezi Airport,597,Zambezi,,Zambia,Africa,-13.5372,23.11
BCA,Gustavo Rizo,219,Baracoa,,Cuba,Caribbean,20.3644,-74.5064
BCB,Virginia Tech,38,Blacksburg,Virginia,United States,North America,37.2072,-80.4069
BCC,Bear Creek 3 Airport,1,Bear Creek,Alaska,United States,North America,45.1833,-109.1
BCD,Silay International,766,Bacolod,,Philippines,Asia,10.6444,122.9292
BCE,Bryce,87,Bryce Canyon,Utah,United States,North America,37.7056,-112.1439
BCF,Bouca Airport,509,Bouca,,Central African Republic,Africa,6.75,18.4167
BCG,Bemichi Airport,350,Bemichi,,Guyana,South America,6.55,-58.55
BCH,Cakung,862,Baucau,,East Timor,Australasia,-8.4931,126.4006
BCI,Barcaldine,802,Barcaldine,Queensland,Australia,Australasia,-23.5592,145.3019
BCJ,Baca Grande Airport,82,Baca Grande,Colorado,United States,North America,39,-106
BCK,Bolwarra,802,Bolwarra,Queensland,Australia,Australasia,-17.4,144.1667
BCL,Barra del Colorado,110,Barra del Colorado,,Costa Rica,Central America,10.7678,-83.5858
BCM,Bacau,473,Bacau,,Romania,Europe,46.5986,26.8819
BCN,Barcelona,482,Barcelona,,Spain,Europe,41.2969,2.0783
BCO,Bako,522,Jinka,,Ethiopia,Africa,5.7833,36.55
BCP,Bambu Airport,804,Bambu,,Papua New Guinea,Australasia,-5.85,146.4833
BCQ,Brach Airport,538,Brach,,Libya,Africa,27.3833,14.1667
BCR,Novo Campo,316,Boca do Acre,Amazonas,Brazil,South America,-8.6333,-67.4167
BCS,Southern Seaplane Apt,72,Belle Chasse,Louisiana,United States,North America,29.9667,-90
BCT,Boca Raton Public,33,Boca Raton,Florida,United States,North America,26.3708,-80.1083
BCU,Bauchi Airport,555,Bauchi,,Nigeria,Africa,10.3667,9.8
BCV,Hector Silva ,106,Belmopan,,Belize,Central America,17.2667,-88.7833
BCW,Benguerra Island Airport,550,Benguerra Island,,Mozambique,Africa,-21.8847,35.425
BCX,Beloretsk,475,Beloretsk,Volga Federal District,Russian Federation,Europe,53.9333,58.3333
BCY,Bulchi Airport,522,Bulchi,,Ethiopia,Africa,6.217,36.667
BCZ,Bickerton Island Airport,802,Bickerton Island,Northern Territory,Australia,Australasia,-13.7833,137.8
BDA,L.F. Wade International,207,Bermuda,,Bermuda,Caribbean,32.3653,-64.69
BDB,Bundaberg,802,Bundaberg,Queensland,Australia,Australasia,-24.9058,152.3208
BDC,Barra do Corda Airport,316,Barra do Corda,Maranhao,Brazil,South America,-5.4666,-45.2666
BDD,Badu Island,802,Badu Island,Queensland,Australia,Australasia,-10.1167,142.1333
BDE,Baudette International,63,Baudette,Minnesota,United States,North America,48.7228,-94.6069
BDF,Rinkenberger Airport,41,Bradford,Illinois,United States,North America,41.1833,-89.65
BDG,Blanding,87,Blanding,Utah,United States,North America,37.5828,-109.4825
BDH,Bandar Lengeh,632,"Bandar Lengeh, Iran",,Iran,Middle East,26.5314,54.8236
BDI,Bird Island,570,Bird Is.,,Seychelles,Africa,-3.7167,55.2167
BDJ,Syamsudin Noor,732,Banjarmasin,,Indonesia,Asia,-3.4428,114.7539
BDK,Soko,533,Bondoukou,,Ivory Coast (Cote d'Ivoire),Africa,8.0183,-2.7583
BDL,Bradley Intl,11,Hartford,Connecticut,United States,North America,41.9375,-72.6831
BDM,Bandirma Airport,679,Bandirma,,Turkey,Europe,40.3183,27.9772
BDN,Talhar,764,Badin,,Pakistan,Asia,24.8417,68.8389
BDO,Husein Sastranegara,732,Bandung,,Indonesia,Asia,-6.9017,107.5758
BDP,Chandragadhi,755,Bhadrapur,,Nepal,Asia,26.5717,88.08
BDQ,Vadodara(Baroda),733,Vadodara,,India,Asia,22.3292,73.2208
BDR,Igor I. Sikorsky,11,Bridgeport,Connecticut,United States,North America,41.1642,-73.1244
BDS,Papola Casale,450,Brindisi,,Italy,Europe,40.6581,17.9467
BDT,Gbadolite Airport,517,Gbadolite,,Democratic Republic of the Congo,Africa,4.0833,22.45
BDU,Bardufoss,465,Bardufoss,,Norway,Europe,69.0561,18.54
BDV,Moba Airport,517,Moba,,Democratic Republic of the Congo,Africa,-7,29.8
BDW,Bedford Downs Airport,802,Bedford Downs,Western Australia,Australia,Australasia,-17.3,127.4667
BDX,Broadus Airport,84,Broadus,Montana,United States,North America,45.4667,-105.3667
BDY,State Airport,92,Bandon,Oregon,United States,North America,43.1167,-124.4167
BDZ,Baindoung Airport,804,Baindoung,,Papua New Guinea,Australasia,-6.3333,146.95
BEA,Bereina Airport,804,Bereina,,Papua New Guinea,Australasia,-8.65,146.4833
BEB,Benbecula,493,"Benbecula, Hebrides",Scotland,United Kingdom,Europe,57.4822,-7.3647
BEC,Beech Airport,62,Wichita,Kansas,United States,North America,37.6833,-97.3333
BED,Hanscom Field,13,Bedford/Hanscom,Massachusetts,United States,North America,42.4708,-71.29
BEE,Beagle Bay,802,Beagle Bay,Western Australia,Australia,Australasia,-12.9833,141.6
BEF,Bluefields,153,Bluefields,,Nicaragua,Central America,11.9969,-83.7686
BEG,Nikola Tesla Airport,480,Belgrade,,Serbia,Europe,44.8192,20.3122
BEH,Southwest Michigan Regional,43,Benton Harbor,Michigan,United States,North America,42.1278,-86.4283
BEI,Beica,522,Beica,,Ethiopia,Africa,9.3917,34.5333
BEJ,Kalimarau,732,Tanjung Redeb,,Indonesia,Asia,2.1667,117.7
BEK,Bareilly,733,Bareilly,,India,Asia,26.2167,81.2333
BEL,Val de Cans Intl,316,Belem,Para,Brazil,South America,-1.3789,-48.4756
BEM,National,548,Beni Mellal,,Morocco,Africa,32.4,-6.3172
BEN,Benina Intl,538,Benghazi,,Libya,Africa,32.0958,20.275
BEO,Aeropelican,802,Newcastle,New South Wales,Australia,Australasia,-33,151.9167
BEP,Bellary Airport,733,Bellary,,India,Asia,15.1833,76.9
BEQ,Honington RAF Airport,493,Bury St. Edmunds,England,United Kingdom,Europe,52.35,0.7667
BER,Brandenburg,429,Berlin,,Germany,Europe,52.3667,13.5033
BES,Bretagne,427,Brest,,France,Europe,48.4472,-4.4206
BET,Bethel,1,Bethel,Alaska,United States,North America,60.7844,-161.8314
BEU,Bedourie,802,Bedourie,Queensland,Australia,Australasia,-24.37,139.445
BEV,Beersheba Airport,636,Beersheba,,Israel,Middle East,31.25,34.8
BEW,Beira,550,Beira,,Mozambique,Africa,-19.7944,34.9119
BEX,Royal Air Force Station,493,Benson,England,United Kingdom,Europe,51.6333,-1.0833
BEY,Rafic Hariri International,647,Beirut,,Lebanon,Middle East,33.8128,35.4903
BEZ,Beru,824,Beru,,Kiribati,Australasia,-1.3333,176
BFA,Bahia Negra Airport,365,Bahia Negra,,Paraguay,South America,-20.2328,-58.1703
BFB,Blue Fox Bay Airport,1,Blue Fox Bay,Alaska,United States,North America,58.1833,-152.1333
BFC,Bloomfield River Airport,802,Bloomfield River,Queensland,Australia,Australasia,-15.9,145.3333
BFD,Bradford Regional,23,Bradford,Pennsylvania,United States,North America,41.8022,-78.6394
BFE,Windelsbleiche,429,Bielefeld,,Germany,Europe,52.0167,8.5167
BFF,Scottsbluff County,65,Scottsbluff,Nebraska,United States,North America,41.8753,-103.6011
BFG,Bullfrog Basin Airport,87,Bullfrog Basin,Utah,United States,North America,37.5458,-110.7133
BFH,Bacacheri Airport,316,Curitiba,Parana,Brazil,South America,-25.4025,-49.2339
BFI,Boeing Field-King Co Intl,93,Seattle,Washington,United States,North America,47.5289,-122.2994
BFJ,Bijie Airport,713,Bijie,,China,Asia,27.2667,105.4711
BFK,Buckley Air National Guard Base,82,Denver,Colorado,United States,North America,39.7333,-104.8667
BFL,Meadows Field,91,Bakersfield,California,United States,North America,35.43,-119.0522
BFM,Mob Aerospace,51,Mobile,Alabama,United States,North America,30.6861,-88.0333
BFN,Bloemfontein Intl.,562,Bloemfontein,,South Africa,Africa,-29.0922,26.3028
BFO,Buffalo Range,565,Chiredzi,,Zimbabwe,Africa,-21.0092,31.5792
BFP,Beaver Falls Airport,23,Beaver Falls,Pennsylvania,United States,North America,40.7667,-80.4
BFQ,Bahia Pina Airport,162,Bahia Pina,,Panama,Central America,7.5833,-78.1667
BFR,Virgil I Grissom Municipal Airport,42,Bedford,Indiana,United States,North America,38.8667,-86.4833
BFS,Belfast Intl,493,Belfast,Northern Ireland,United Kingdom,Europe,54.6542,-6.225
BFT,County Airport,37,Beaufort,South Carolina,United States,North America,32.4108,-80.635
BFU,Bengbu Airport,713,Bengbu,,China,Asia,32.95,117.3333
BFV,Buriram,782,Buriram,,Thailand,Asia,15.2269,103.2519
BFW,Sidi Belabbes Airport,500,Sidi Belabbes,,Algeria,Africa,35.1717,-0.5894
BFX,Bafoussam,504,Bafoussam,,Cameroon,Africa,5.4833,10.4
BGA,Palonegro International,327,Bucaramanga,,Colombia,South America,7.1072,-73.1281
BGB,Booue Airport,526,Booue,,Gabon,Africa,-0.1067,11.9389
BGC,Braganca,469,Braganca,,Portugal,Europe,41.8167,-6.75
BGD,Hutchinson County,74,Borger,Texas,United States,North America,35.7008,-101.3931
BGE,Decatur County,34,Bainbridge,Georgia,United States,North America,30.9,-84.6
BGF,Mpoko Intl,509,Bangui,,Central African Republic,Africa,4.3961,18.5203
BGG,Bingol,679,Bingol,,Turkey,Europe,38.8608,40.5922
BGH,Abbaye Airport,545,Bogue,,Mauritania,Africa,16.633,-14.2
BGI,Grantley Adams International,205,Bridgetown,,Barbados,Caribbean,13.0722,-59.4931
BGJ,Borgarfjordur Eystri Airport,439,Borgarfjordur Eystri,,Iceland,Europe,66,-14.5
BGK,Big Creek,106,Big Creek,,Belize,Central America,16.5167,-88.4167
BGL,Balewa,755,Baglung,,Nepal,Asia,28.2153,83.6833
BGM,Link Field/Broome Co,22,Binghamton,New York,United States,North America,42.2014,-75.9692
BGN,Belaya Gora,475,Belaya Gora,Far East Federal District,Russian Federation,Asia,68.5569,146.2311
BGO,Flesland,465,Bergen,,Norway,Europe,60.2936,5.2194
BGP,Bongo Airport,526,Bongo,,Gabon,Africa,-1.65,13.4333
BGQ,Big Lake Airport,1,Big Lake,Alaska,United States,North America,61.55,-149.8667
BGR,Bangor International,12,Bangor,Maine,United States,North America,44.8078,-68.8278
BGS,Webb Air Force Base,74,Big Spring,Texas,United States,North America,32.3856,-101.4833
BGT,Bagdad,81,Bagdad,Arizona,United States,North America,34.5933,-113.1708
BGU,Bangassou Airport,509,Bangassou,,Central African Republic,Africa,4.7867,22.7844
BGV,Bento Goncalves Airport,316,Bento Goncalves,Rio Grande do Sul,Brazil,South America,-29.1667,-51.5167
BGW,Baghdad International Airport,634,Baghdad,,Iraq,Middle East,33.2667,44.5
BGX,Gustavo Kraemer,316,Bage,Rio Grande do Sul,Brazil,South America,-31.3986,-54.1125
BGY,Bergamo/Orio Al Serio,450,Milan-Orio Serio,,Italy,Europe,45.6683,9.7003
BGZ,Braga Airport,469,Braga,,Portugal,Europe,41.55,-8.4333
BHA,Los Perales,337,Bahia De Caraquez,,Ecuador,South America,-0.5833,-80.4
BHB,Bar Harbour,12,Bar Harbor,Maine,United States,North America,44.4489,-68.3617
BHC,Bhurban Heliport,764,Bhurban,,Pakistan,Asia,33.925,73.4333
BHD,George Best City Airport,493,Belfast,Northern Ireland,United Kingdom,Europe,54.6172,-5.8708
BHE,Woodbourne,851,Blenheim,,New Zealand,Australasia,-41.5167,173.8722
BHF,Cupica Airport,327,Cupica,,Colombia,South America,6.7167,-77.5167
BHG,Brus Laguna,131,Brus Laguna,,Honduras,Central America,15.7347,-84.5433
BHH,Bisha,670,Bisha,,Saudi Arabia,Middle East,19.9861,42.625
BHI,Comandante Espora,303,Bahia Blanca,Buenos Aires,Argentina,South America,-38.7306,-62.1506
BHJ,Shyamji Krishna Verma,733,Bhuj,,India,Asia,23.2875,69.6706
BHK,Bukhara International,788,Bukhara,,Uzbekistan,Asia,39.7667,64.4833
BHL,Bahai Angeles Airport,148,Bahai de los Angeles,,Mexico,North America,28.95,-113.55
BHM,Birmingham Municipal,51,Birmingham,Alabama,United States,North America,33.5631,-86.7556
BHN,Beihan Airport,694,Beihan,,Yemen,Middle East,14.7833,45.7333
BHO,Raja Bhoj,733,Bhopal,,India,Asia,23.2847,77.3386
BHP,Bhojpur Airport,755,Bhojpur,,Nepal,Asia,27.1833,87.05
BHQ,Broken Hill,802,Broken Hill,New South Wales,Australia,Australasia,-32.0017,141.4667
BHR,Bharatpur,755,Bharatpur,,Nepal,Asia,27.6764,84.4325
BHS,Bathurst Airport,802,Bathurst,New South Wales,Australia,Australasia,-33.4111,149.6528
BHT,Brighton Downs,802,Brighton Downs,Queensland,Australia,Australasia,-23.5,141.6333
BHU,Bhavnagar,733,Bhavnagar,,India,Asia,21.755,72.1844
BHV,Bahawalpur,764,Bahawalpur,,Pakistan,Asia,29.3444,71.7125
BHW,Bhagatanwala Airport,764,Sargodha,,Pakistan,Asia,32.1667,72.6667
BHX,Birmingham Airport,493,Birmingham,England,United Kingdom,Europe,52.4531,-1.7464
BHY,Fucheng,713,Beihai,,China,Asia,21.4833,109.0833
BHZ,Metropolitan Area,316,Belo Horizonte,Minas Gerais,Brazil,South America,-19.7425,-43.9589
BIA,Poretta,427,"Bastia, Corsica",,France,Europe,42.5492,9.4861
BIB,Baidoa Airport,573,Baidoa,,Somalia,Africa,3.0667,43.6333
BIC,Big Creek,1,Big Creek,Alaska,United States,North America,57.6667,-157.5833
BID,Block Island,15,Block Island,Rhode Island,United States,North America,41.1667,-71.5792
BIE,Beatrice Municipal,65,Beatrice,Nebraska,United States,North America,40.2989,-96.7533
BIF,Biggs Aaf,74,El Paso,Texas,United States,North America,31.8494,-106.3794
BIG,Allen AAF,1,Delta Junction,Alaska,United States,North America,63.9936,-145.7189
BIH,Eastern Sierra Rgnl,91,Bishop,California,United States,North America,37.3733,-118.365
BII,Enyu,844,Bikini Atoll,,Marshall Islands,Australasia,11.5227,165.5653
BIJ,Biliau Airport,804,Biliau,,Papua New Guinea,Australasia,-5.5833,146.2
BIK,Frans Kaisiepo,732,Biak,,Indonesia,Asia,-1.1867,136.0856
BIL,Logan Intl,84,Billings,Montana,United States,North America,45.8069,-108.5428
BIM,South Bimini Intl,204,Bimini,,Bahamas,Caribbean,25.6994,-79.2656
BIN,Bamyan,701,Bamyan,,Afghanistan,Asia,34.8042,67.8236
BIO,Bilbao Airport,482,Bilbao,,Spain,Europe,43.3028,-2.9217
BIP,Bulimba Airport,802,Bulimba,Queensland,Australia,Australasia,-16.15,143.75
BIQ,Parme/Bayonne-Anglet,427,Biarritz,,France,Europe,43.4686,-1.5225
BIR,Biratnagar,755,Biratnagar,,Nepal,Asia,26.4347,87.2833
BIS,Bismarck Municipal,66,Bismarck,North Dakota,United States,North America,46.7789,-100.7525
BIT,Patan,755,Baitadi,,Nepal,Asia,29,80.5
BIU,Bildudalur,439,Bildudalur,,Iceland,Europe,65.8333,-23.9833
BIV,Bria Airport,509,Bria,,Central African Republic,Africa,6.5333,21.9833
BIW,Billiluna,802,Billiluna,Western Australia,Australia,Australasia,-19.5833,127.6333
BIX,Keesler Air Force Base,53,Biloxi,Mississippi,United States,North America,30.4111,-88.9229
BIY,Bisho Airport,562,Bisho,,South Africa,Africa,-35.8833,27.2833
BIZ,Bimin Airport,804,Bimin,,Papua New Guinea,Australasia,-5.2833,142.0167
BJA,Soummam-Abane Ramdane,500,Bejaia,,Algeria,Africa,36.75,5.0833
BJB,Bojnurd Airport,632,Bojnurd,,Iran,Middle East,37.4883,57.3056
BJC,Rocky Mountain Metrop.,82,Denver,Colorado,United States,North America,39.9333,-105.0667
BJD,Bakkafjordur Airport,439,Bakkafjordur,,Iceland,Europe,66.0667,-14.75
BJE,Baleela,583,Baleela,,Sudan,Africa,-11.6691,28.5332
BJF,Batsfjord,465,Batsfjord,,Norway,Europe,70.6333,29.5
BJG,Mopait Airport,732,Kota Mobagu,,Indonesia,Asia,-0.95,122.1
BJH,Bajhang Airport,755,Bajhang,,Nepal,Asia,29.55,81.25
BJI,Bemidji Municipal,63,Bemidji,Minnesota,United States,North America,47.5097,-94.9347
BJJ,Wayne County,44,Wooster,Ohio,United States,North America,40.8747,-81.8869
BJK,Benjina,732,Nangasuri Aru Island,,Indonesia,Asia,-6.0833,134.25
BJL,Banjul Intl,527,Banjul,,Gambia,Africa,13.3372,-16.6544
BJM,Bujumbura Intl,503,Bujumbura,,Burundi,Africa,-3.3317,29.3208
BJN,Bajone Airport,550,Bajone,,Mozambique,Africa,-17.1833,38.0833
BJO,Bermejo Airport,312,Bermejo,,Bolivia,South America,-22.8667,-64.3333
BJP,Arthur Siqueira,316,Braganca Paulista,Sao Paulo,Brazil,South America,-22.95,-46.5667
BJQ,Bahja Airport,658,Bahja,,Oman,Middle East,19.875,56.0619
BJR,Bahar Dar,522,Bahar Dar,,Ethiopia,Africa,11.5903,37.3847
BJS,Beijing,713,Beijing-Metro,,China,Asia,39.8861,116.2833
BJT,Bentota River SPB,711,Bentota,,Sri Lanka,Asia,6.421,79.9988
BJU,Bajura Airport,755,Bajura,,Nepal,Asia,29.3667,81.3333
BJV,Milas Airport,679,Bodrum,,Turkey,Europe,37.25,27.65
BJW,Soa Airport,732,Bajawa,,Indonesia,Asia,-8.7667,120.9833
BJX,Del Bajio International,148,Leon/Guanajuato,,Mexico,North America,20.9935,-101.4808
BJY,Batajnica Airport,480,Belgrade,,Serbia,Europe,44.8167,20.3167
BJZ,Badajoz Airport,482,Badajoz,,Spain,Europe,38.8914,-6.8214
BKA,Bykovo,475,Moscow,Central Federal District,Russian Federation,Europe,55.6167,38.0667
BKB,Nal,733,Bikaner,,India,Asia,28.0167,73.3
BKC,Buckland,1,Buckland,Alaska,United States,North America,65.9789,-161.1267
BKD,Stephens County Airport,74,Breckenridge,Texas,United States,North America,32.75,-98.9
BKE,Baker Municipal,92,Baker City,Oregon,United States,North America,44.8383,-117.81
BKF,Lake Brooks SPB,1,Katmai National Park,Alaska,United States,North America,58.6,-156.233
BKG,Branson Airport,64,Branson,Missouri,United States,North America,36.5317,-93.1997
BKH,Barking Sands Airport,2,Kekaha,Hawaii,United States,North America,21.9667,-159.7167
BKI,Kota Kinabalu International,749,Kota Kinabalu,,Malaysia,Asia,5.9408,116.05
BKJ,Baralande,531,Boke,,Guinea,Africa,10.9667,-14.2833
BKK,Suvarnabhumi - New Bangkok International Airport,782,Bangkok,,Thailand,Asia,13.7027,100.7456
BKL,Burke Lakefront,44,Cleveland,Ohio,United States,North America,41.5169,-81.6833
BKM,Bakelalan,749,"Bakelalan, Sarawak",,Malaysia,Asia,3.985,115.62
BKN,Balkanabat,785,Balkanabat,,Turkmenistan,Asia,39.4803,54.3658
BKO,Senou International,543,Bamako,,Mali,Africa,12.6322,-8.0267
BKP,Barkly Downs,802,Barkly Downs,Queensland,Australia,Australasia,-21.0333,138.25
BKQ,Blackall,802,Blackall,Queensland,Australia,Australasia,-24.4342,145.4283
BKR,Bokoro Airport,511,Bokoro,,Chad,Africa,12.4166,17.2333
BKS,Fatmawati Soekarno ,732,Bengkulu,,Indonesia,Asia,-3.7667,102.3
BKT,Blackstone AAF,38,Blackstone,Virginia,United States,North America,37.0833,-77.95
BKU,Betioky,541,Betioky,,Madagascar,Africa,-23.7322,44.3911
BKW,Raleigh County Meml,39,Beckley,West Virginia,United States,North America,37.7819,-81.1242
BKX,Brookings Regional,67,Brookings,South Dakota,United States,North America,44.3033,-96.8111
BKY,Kavumu,517,Bukavu,,Democratic Republic of the Congo,Africa,-2.3,28.8167
BKZ,Bukoba,585,Bukoba,,Tanzania,Africa,-1.3,31.8
BLA,J.A. Anzoategui Intl,388,Barcelona,,Venezuela,South America,10.1097,-64.6875
BLB,Panama Pacifico,162,Balboa,,Panama,Central America,8.9731,-79.5575
BLC,Bamenda,504,Bali,,Cameroon,Africa,5.8972,10.0317
BLD,Boulder City,85,Boulder City,Nevada,United States,North America,35.9475,-114.8611
BLE,Dala,484,Borlange,,Sweden,Europe,60.4233,15.5181
BLF,Mercer County,39,Bluefield,West Virginia,United States,North America,37.2958,-81.2081
BLG,Belaga,749,"Belaga, Sarawak",,Malaysia,Asia,2.6444,113.7625
BLH,Blythe Airport,91,Blythe,California,United States,North America,33.6208,-114.7189
BLI,Bellingham International,93,Bellingham,Washington,United States,North America,48.7944,-122.5347
BLJ,Mostepha Ben Boulaid,500,Batna,,Algeria,Africa,35.5478,6.16
BLK,Blackpool,493,Blackpool,England,United Kingdom,Europe,53.7719,-3.0361
BLL,Billund,419,Billund,,Denmark,Europe,55.7403,9.1528
BLM,Monmouth County Airport,21,Belmar,New Jersey,United States,North America,40.1833,-74.0167
BLN,Benalla Airport,802,Benalla,Victoria,Australia,Australasia,-36.55,145.9833
BLO,Blonduos,439,Blonduos,,Iceland,Europe,65.6456,-20.2867
BLP,Huallaga,368,Bellavista,,Peru,South America,-16.5833,-69.4167
BLQ,Guglielmo Marconi,450,Bologna,,Italy,Europe,44.5306,11.2925
BLR,Kempegowda International,733,Bengaluru,,India,Asia,13.203,77.7058
BLS,Bollon,802,Bollon,Queensland,Australia,Australasia,-28.0333,147.3667
BLT,Blackwater,802,Blackwater,Queensland,Australia,Australasia,-23.6,148.8167
BLU,Blue Canyon-Nyack Airport,91,Emigrant Gap,California,United States,North America,39.25,-120.7167
BLV,MidAmerica St Louis,41,Belleville,Illinois,United States,North America,38.5411,-89.8489
BLW,Bellows Field,2,Waimanalo,Hawaii,United States,North America,21.3333,-157.7
BLX,Belluno,450,Belluno,,Italy,Europe,46.3333,12.3417
BLY,Belmullet Airport,441,Belmullet,,Ireland,Europe,54.2333,-10
BLZ,Chileka Intl,542,Blantyre,,Malawi,Africa,-15.6747,34.9708
BMA,Bromma,484,Stockholm-Bromma,,Sweden,Europe,59.3528,17.9464
BMB,Bumba Airport,517,Bumba,,Democratic Republic of the Congo,Africa,2.19,22.4733
BMC,Brigham City Airport,87,Brigham City,Utah,United States,North America,41.5492,-112.0622
BMD,Belo Sur Tsiribihina,541,Belo Tsiribihina,,Madagascar,Africa,-19.6867,44.5422
BME,Broome International,802,Broome,Western Australia,Australia,Australasia,-17.95,122.23
BMF,Bakouma Airport,509,Bakouma,,Central African Republic,Africa,5.7333,22.8
BMG,Monroe County,42,Bloomington,Indiana,United States,North America,39.14,-86.6147
BMH,Bomai,804,Bomai,,Papua New Guinea,Australasia,-6.3761,144.6353
BMI,Central Illinois Regional,41,Bloomington/Normal,Illinois,United States,North America,40.4819,-88.9275
BMJ,Baramita Airport,350,Baramita,,Guyana,South America,6.75,-60
BMK,Borkum,429,Borkum,,Germany,Europe,53.6,6.7
BML,Berlin Airport,14,Berlin,New Hampshire,United States,North America,44.5747,-71.1764
BMM,Bitam,526,Bitam,,Gabon,Africa,2.0758,11.4908
BMN,Bamarni Airport,634,Bamarni,,Iraq,Middle East,37.1,43.2667
BMO,Bhamo,706,Bhamo,,Myanmar,Asia,24.2739,97.2517
BMP,Brampton Island,802,Brampton Island,Queensland,Australia,Australasia,-20.7833,149.2333
BMQ,Bamburi Airport,535,Bamburi,,Kenya,Africa,-4.5,39.8333
BMR,Baltrum,429,Baltrum,,Germany,Europe,53.7333,7.3833
BMS,S.Mariani Bittencourt,316,Brumado,Bahia,Brazil,South America,-14.2333,-41.6333
BMT,Beaumont Municipal Airport,74,Beaumont/Port Arthur,Texas,United States,North America,30.0833,-94.1
BMU,Sultan M. Salahuddin,732,Bima,,Indonesia,Asia,-8.5395,118.6872
BMV,Buon Ma Thuot,791,Buon Ma Thuot,,Vietnam,Asia,12.6667,108.1
BMW,Bordj Badji Mokhtar,500,Bordj Badji Mokhtar,,Algeria,Africa,21.3744,0.9263
BMX,Big Mountain,1,Big Mountain,Alaska,United States,North America,59.3619,-155.2567
BMY,Waala,846,Ile Art,,New Caledonia,Australasia,-19.75,163.6667
BMZ,Bamu Airport,804,Bamu,,Papua New Guinea,Australasia,-7.8333,143.2333
BNA,Nashville Metro,54,Nashville,Tennessee,United States,North America,36.1267,-86.6819
BNB,Boende Airport,517,Boende,,Democratic Republic of the Congo,Africa,-0.233,20.87
BNC,Mavivi,517,Beni,,Democratic Republic of the Congo,Africa,0.5667,29.4667
BND,Bandar Abbas International Airport,632,"Bandar Abbas, Iran",,Iran,Middle East,27.2267,56.3783
BNE,Brisbane Intl,802,Brisbane,Queensland,Australia,Australasia,-27.385,153.1163
BNF,Warm Spring Bay Spb,1,Baranof,Alaska,United States,North America,57.0892,-134.8314
BNG,Banning Municipal,91,Banning,California,United States,North America,33.9231,-116.8497
BNH,Barnes Airport,11,Hartford,Connecticut,United States,North America,41.7667,-72.6833
BNI,Benin City Airport,555,Benin City,,Nigeria,Africa,6.3238,5.0616
BNJ,Bonn Hbf Railway St,429,Bonn,,Germany,Europe,50.7667,7.1667
BNK,Byron Gateway,802,Ballina,New South Wales,Australia,Australasia,-28.8361,153.5614
BNL,Barnwell,37,Barnwell,South Carolina,United States,North America,33.25,-81.3833
BNM,Bodinumu,804,Bodinumu,,Papua New Guinea,Australasia,-9.0833,147.5
BNN,Bronnoy,465,Bronnoysund,,Norway,Europe,65.4603,12.2069
BNO,Burns Municipal,92,Burns,Oregon,United States,North America,43.5906,-118.9542
BNP,Bannu,764,Bannu,,Pakistan,Asia,32.9667,70.5167
BNQ,Baganga Airport,766,Baganga,,Philippines,Asia,13.25,121.05
BNR,Banfora,593,Banfora,,Burkina Faso,Africa,10.6333,-4.7667
BNS,Barinas Civil,388,Barinas,,Venezuela,South America,8.6181,-70.2211
BNT,Bundi Airport,804,Bundi,,Papua New Guinea,Australasia,-5.75,145.45
BNU,Blumenau,316,Blumenau,Santa Catarina,Brazil,South America,-26.9333,-49.05
BNV,Boana Airport,804,Boana,,Papua New Guinea,Australasia,-6.425,146.8167
BNW,Boone Airport,61,Boone,Iowa,United States,North America,42.0667,-93.8833
BNX,Banja Luka International Airport,410,Banja Luka,,Bosnia and Herzegovina,Europe,44.9409,17.2976
BNY,Anua,874,Bellona,,Solomon Islands,Australasia,-11.3,159.8167
BNZ,Banz Airport,804,Banz,,Papua New Guinea,Australasia,-5.8083,144.6114
BOA,Boma,517,Boma,,Democratic Republic of the Congo,Africa,-5.8503,13.0656
BOB,Motu-Mute,823,Bora Bora,,French Polynesia,Australasia,-16.4425,-151.7492
BOC,Isla Colon International,162,Bocas Del Toro,,Panama,Central America,9.34,-82.2519
BOD,Merignac,427,Bordeaux,,France,Europe,44.8294,-0.7144
BOE,Boundji,515,Boundji,,Congo,Africa,-1.0333,15.3833
BOF,Bolling Air Force Base,32,Washington,District of Columbia,United States,North America,38.9,-77.0333
BOG,El Dorado Intl,327,Bogota,,Colombia,South America,4.7061,-74.1422
BOH,Bournemouth/Hurn International,493,Bournemouth,England,United Kingdom,Europe,50.7806,-1.8369
BOI,Boise Air Term/Gowen Field,83,Boise,Idaho,United States,North America,43.5653,-116.225
BOJ,Burgas,411,Burgas,,Bulgaria,Europe,42.5697,27.5153
BOK,Brookings,92,Brookings,Oregon,United States,North America,42.0747,-124.2889
BOL,Ballykelly Airport,493,Ballykelly,England,United Kingdom,Europe,55,-7
BOM,Mumbai (Chhatrapati Shivaji) International,733,Mumbai/Bombay,,India,Asia,19.0881,72.8517
BON,Flamingo Field International,260,Bonaire,,"Bonaire, Saint Eustatius & Saba",Caribbean,12.1342,-68.2733
BOO,Bodo,465,Bodo,,Norway,Europe,67.2692,14.3722
BOP,Bouar,509,Bouar,,Central African Republic,Africa,5.9667,15.6333
BOQ,Boku,804,Boku,,Papua New Guinea,Australasia,-6.5475,155.3381
BOR,Off-line Point,427,Belfort,,France,Europe,47.6556,7.0117
BOS,Logan International,13,Boston,Massachusetts,United States,North America,42.3636,-71.0061
BOT,Boset Airport,804,Boset,,Papua New Guinea,Australasia,-7.2333,141.0833
BOU,Bourges,427,Bourges,,France,Europe,47.0667,2.3667
BOV,Boang,804,Boang Island,,Papua New Guinea,Australasia,-3.3667,153.3333
BOW,Bartow Airport,33,Bartow,Florida,United States,North America,27.9,-81.8333
BOX,Borroloola,802,Borroloola,Northern Territory,Australia,Australasia,-16.0772,136.3036
BOY,Bobo Dioulasso,593,Bobo Dioulasso,,Burkina Faso,Africa,11.1636,-4.3264
BOZ,Bozoum,509,Bozoum,,Central African Republic,Africa,6.3167,16.3833
BPA,Grumman Airport,22,Bethpage,New York,United States,North America,40.7333,-73.4833
BPB,Boridi Airport,804,Boridi,,Papua New Guinea,Australasia,-9.1333,147.5333
BPC,Bamenda,504,Bamenda,,Cameroon,Africa,6.05,10.1167
BPD,Bapi,804,Bapi,,Papua New Guinea,Australasia,-7.75,147.0167
BPE,Beidaihe,713,Qinhuangdao,,China,Asia,39.6664,119.06
BPF,Batuna Airport,874,Batuna,,Solomon Islands,Australasia,-8.35,158.0667
BPG,Barra do Garcas,316,Barra do Garcas,Mato Grosso,Brazil,South America,-15.85,-52.3833
BPH,Bislig,766,Bislig,,Philippines,Asia,8.1967,126.3211
BPI,Big Piney/Marbleton,88,Big Piney,Wyoming,United States,North America,42.5833,-110.1167
BPK,Biangabip Airport,804,Biangabip,,Papua New Guinea,Australasia,-5.5297,141.7497
BPL,Alashankou,713,Bole,,China,Asia,44.895,82.2006
BPM,Begumpet,733,Hyderabad,,India,Asia,17.4531,78.3842
BPN,Sepinggan,732,Balikpapan,,Indonesia,Asia,-1.2681,116.8931
BPO,Railway Station,713,Bo'ao,,China,Asia,19.1381,110.4828
BPR,Parkway Railway St,493,Bristol,England,United Kingdom,Europe,51.5139,-2.5417
BPS,Porto Seguro,316,Porto Seguro,Bahia,Brazil,South America,-16.4333,-39.0833
BPT,Jack Brooks Regional,74,Beaumont/Port Arthur,Texas,United States,North America,29.9508,-94.02
BPU,Off-Line Point,736,Beppu,,Japan,Asia,33.25,131.5
BPX,Bamda/Bangda Airport,713,Qamdo/Changdu,,China,Asia,30.5558,97.1067
BPY,Besalampy,541,Besalampy,,Madagascar,Africa,-16.75,44.4833
BQA,Dr. Juan C. Angara,766,Baler,,Philippines,Asia,15.73,121.501
BQB,Busselton Airport,802,Busselton,Western Australia,Australia,Australasia,-33.6833,115.3333
BQD,Railway Station,450,Brindisi,,Italy,Europe,40.6342,17.9389
BQE,Bubaque Airport,559,Bubaque,,Guinea Bissau,Africa,11.3,-15.85
BQG,Bogorodskoye,475,Bogorodskoye,Far East Federal District,Russian Federation,Asia,52.3783,140.4483
BQH,Biggin Hill,493,London,England,United Kingdom,Europe,51.3228,0.0286
BQI,Bagani Airport,575,Bagani,,Namibia,Africa,-18.1181,21.6297
BQJ,Batagay,475,Batagay,Far East Federal District,Russian Federation,Asia,67.6478,134.695
BQK,Glynco Jetport,34,Brunswick,Georgia,United States,North America,31.2589,-81.4664
BQL,Boulia,802,Boulia,Queensland,Australia,Australasia,-22.9152,139.8949
BQN,Rafael Hernandez,3,Aguadilla,Puerto Rico,United States,North America,18.4958,-67.13
BQO,Tehini,533,Bouna,,Ivory Coast (Cote d'Ivoire),Africa,9.2667,-3
BQQ,Barra Airport,316,Barra,Bahia,Brazil,South America,-11.0833,-43.1333
BQS,Ignatyevo,475,Blagoveshchensk,Far East Federal District,Russian Federation,Asia,50.4167,127.4
BQT,Brest,413,Brest,,Belarus,Europe,52.1167,23.8833
BQU,Bequia,279,Bequia,,Saint Vincent and Grenadines,Caribbean,12.9833,-61.25
BQV,Bartlett Cove Sea Plane Base,1,Gustavus,Alaska,United States,North America,58.4167,-135.7333
BQW,Balgo Hill,802,Balgo Hill,Western Australia,Australia,Australasia,-20.1333,127.8
BQY,Off-Line Point,450,Bentivoglio,,Italy,Europe,44.9833,11.6667
BQZ,Railway Station,482,Badajoz,,Spain,Europe,38.8906,-6.9814
BRA,Barreiras,316,Barreiras,Bahia,Brazil,South America,-12.0731,-45.0083
BRB,Barreirinhas,316,Barreirinhas,Maranhao,Brazil,South America,-2.8333,-42.8333
BRC,San Carlos Bariloche International,303,San Carlos Bariloche,Rio Negro,Argentina,South America,-41.1497,-71.1583
BRD,Brainerd Lakes Rgnl,63,Brainerd,Minnesota,United States,North America,46.3972,-94.1375
BRE,Bremen,429,Bremen,,Germany,Europe,53.0467,8.79
BRF,Bradford Forster Sq Rail,493,Leeds/Bradford,England,United Kingdom,Europe,53.8,-1.75
BRG,Whitesburg Municipal,52,Whitesburg,Kentucky,United States,North America,37.1167,-82.8167
BRH,Braham,804,Braham,,Papua New Guinea,Australasia,-5.7,145.3667
BRI,Palese Macchie,450,Bari,,Italy,Europe,41.1411,16.7883
BRJ,Bright Airport,802,Bright,Victoria,Australia,Australasia,-36.7,146.9333
BRK,Bourke,802,Bourke,New South Wales,Australia,Australasia,-30.0431,145.9472
BRL,Burlington Muni,61,Burlington,Iowa,United States,North America,40.7861,-91.1233
BRM,Jacinto Lara Intl,388,Barquisimeto,,Venezuela,South America,10.0453,-69.3561
BRN,Belp,486,Bern,,Switzerland,Europe,46.9153,7.4992
BRO,South Padre Isl Intl,74,Brownsville,Texas,United States,North America,25.9064,-97.4256
BRP,Biaru Airport,804,Biaru,,Papua New Guinea,Australasia,-7.5333,146.7
BRQ,Turany,418,Brno,,Czech Republic,Europe,49.1514,16.6944
BRR,Barra Airport,493,Barra,Scotland,United Kingdom,Europe,57.0233,-7.4403
BRS,Bristol/Lulsgate,493,Bristol,England,United Kingdom,Europe,51.3817,-2.7089
BRT,Bathurst Island,802,Bathurst Island,Northern Territory,Australia,Australasia,-11.7689,130.6167
BRU,Brussels Airport,409,Brussels,,Belgium,Europe,50.9014,4.4844
BRV,Bremerhaven Aaf,429,Bremerhaven,,Germany,Europe,53.5839,8.5578
BRW,W.Post-W.Rogers Mem. ,1,Barrow,Alaska,United States,North America,71.2833,-156.7694
BRX,Maria Montez Intl,224,Barahona,,Dominican Republic,Caribbean,18.2144,-71.0994
BRY,Samuels Field,52,Bardstown,Kentucky,United States,North America,37.8167,-85.4667
BRZ,Railway Station,450,Brescia,,Italy,Europe,45.5319,10.2128
BSA,Bosaso International,573,Bosaso,,Somalia,Africa,11.2833,49.15
BSB,J. Kubitschek Intl,316,Brasilia,Distrito Federal,Brazil,South America,-15.8606,-47.9153
BSC,Jose Celestino Mutis,327,Bahia Solano,,Colombia,South America,6.1833,-77.4
BSD,Baoshan,713,Baoshan,,China,Asia,25.15,99.15
BSE,Sematan,749,Sematan,,Malaysia,Asia,1.8,109.7667
BSF,Bradshaw Army Air Field,2,Pohakuloa,Hawaii,United States,North America,21.3833,-157.75
BSG,Bata,521,Bata,,Equatorial Guinea,Africa,1.9067,9.8022
BSH,Brighton Railway Station,493,Brighton,England,United Kingdom,Europe,50.8333,-0.1333
BSI,Blairsville Airport,23,Blairsville,Pennsylvania,United States,North America,40.45,-79.2833
BSJ,Bairnsdale,802,Bairnsdale,Victoria,Australia,Australasia,-37.8833,147.5667
BSK,Mohamed Khider,500,Biskra,,Algeria,Africa,34.7933,5.7381
BSL,EuroAirport Swiss CH,486,Basel/Mulhouse,,Switzerland,Europe,47.5903,7.5303
BSM,Bishen Kola,632,Bishen Kola,,Iran,Middle East,36.6551,52.3495
BSN,Bossangoa,509,Bossangoa,,Central African Republic,Africa,6.5,17.4333
BSO,Basco,766,Basco,,Philippines,Asia,20.4531,121.9778
BSP,Bensbach,804,Bensbach,,Papua New Guinea,Australasia,-9.05,141.05
BSQ,Bisbee Municipal Airport,81,Douglas/Bisbee,Arizona,United States,North America,31.3639,-109.8811
BSR,Basrah International,634,Basrah,,Iraq,Middle East,30.5556,47.7914
BSS,Balsas Airport,316,Balsas,Maranhao,Brazil,South America,-7.5167,-46.05
BST,Bost,701,Lashkar Gah,,Afghanistan,Asia,31.55,64.3667
BSU,Basankusu Airport,517,Basankusu,,Democratic Republic of the Congo,Africa,1.2217,19.7889
BSV,Besakoa Airport,541,Besakoa,,Madagascar,Africa,-15.6667,47.0667
BSW,Boswell Bay Airport,1,Boswell Bay,Alaska,United States,North America,60.4,-146.1333
BSX,Pathein,706,Pathein,,Myanmar,Asia,16.8,94.7833
BSY,Bardera Airport,573,Bardera,,Somalia,Africa,2.35,42.3333
BSZ,Bartletts,1,Bartletts,Alaska,United States,North America,58.2667,-157.4833
BTA,Bertoua,504,Bertoua,,Cameroon,Africa,4.5408,13.7275
BTB,Betou Airport,517,Betou,,Democratic Republic of the Congo,Africa,3.05,18.5
BTC,Batticaloa Airport,711,Batticaloa,,Sri Lanka,Asia,7.7033,81.6786
BTD,Brunette Downs Airport,802,Brunette Downs,Northern Territory,Australia,Australasia,-18.6667,135.9167
BTE,Sherbro International,571,Bonthe,,Sierra Leone,Africa,7,-12.0083
BTF,Salt Lake Skypark,87,Bountiful,Utah,United States,North America,40.8833,-111.8833
BTG,Batangafo Airport,509,Batangafo,,Central African Republic,Africa,7.4167,18.3333
BTH,Hang Nadim,732,Batam/Batu Besar,,Indonesia,Asia,1.1306,104.1342
BTI,Barter Island,1,Barter Island,Alaska,United States,North America,70.1347,-143.5783
BTJ,Sultan Iskandar Muda,732,Banda Aceh,,Indonesia,Asia,5.52,95.4194
BTK,Bratsk,475,Bratsk,Siberian Federal District,Russian Federation,Asia,56.37,101.6986
BTL,W K Kellogg Regional,43,Kalamazoo/Battle Creek,Michigan,United States,North America,42.3092,-85.2478
BTM,Bert Mooney,84,Butte,Montana,United States,North America,45.9511,-112.4939
BTN,Bennettsville,37,Bennettsville,South Carolina,United States,North America,34.6167,-79.6833
BTO,Botopasi,379,Botopasi,,Suriname,South America,4.2333,-55.45
BTP,Graham Field,23,Butler,Pennsylvania,United States,North America,40.85,-79.9167
BTQ,Butare Airport,566,Butare,,Rwanda,Africa,-2.6,29.7333
BTR,Metropolitan -Ryan Field,72,Baton Rouge,Louisiana,United States,North America,30.5317,-91.1506
BTS,M.R. Stefanik,483,Bratislava,,Slovakia,Europe,48.1667,17.2167
BTT,Bettles,1,Bettles,Alaska,United States,North America,66.9153,-151.5264
BTU,Bintulu Airport,749,"Bintulu, Sarawak",,Malaysia,Asia,3.175,113.0431
BTV,Burlington Intl,16,Burlington,Vermont,United States,North America,44.4728,-73.1531
BTW,Batulicin Airport,732,Batulicin,,Indonesia,Asia,-3,116
BTX,Betoota Airport,802,Betoota,Queensland,Australia,Australasia,-25.7,140.7333
BTY,Beatty Airport,85,Beatty,Nevada,United States,North America,36.9,-116.7667
BTZ,Bursa Airport,679,Bursa,,Turkey,Europe,40.2344,29.0097
BUA,Buka,804,Buka Is.,,Papua New Guinea,Australasia,-5.4167,154.6833
BUB,Burwell,65,Burwell,Nebraska,United States,North America,41.7833,-99.1333
BUC,Burketown,802,Burketown,Queensland,Australia,Australasia,-17.75,139.5333
BUD,Liszt Ferenc International,437,Budapest,,Hungary,Europe,47.4333,19.2333
BUE,Metropolitan Area,303,Buenos Aires-Metro,Buenos Aires,Argentina,South America,-34.6894,-58.475
BUF,Buffalo Niagara International,22,Buffalo,New York,United States,North America,42.9406,-78.7325
BUG,17 de Setembro,502,Benguela,,Angola,Africa,-12.6064,13.4056
BUH,Metropolitan Area,473,Bucharest-Metro,,Romania,Europe,44.5331,26.1
BUI,Bokondini,732,Bokondini,,Indonesia,Asia,-3.7167,138.65
BUJ,Boussaada,500,Boussaada,,Algeria,Africa,35.2,4.1833
BUK,Albuq,694,Albuq,,Yemen,Middle East,15.8333,43.7667
BUL,Bulolo,804,Bulolo,,Papua New Guinea,Australasia,-7.1897,146.6478
BUM,Butler Airport,64,Butler,Missouri,United States,North America,38.2667,-94.3333
BUN,Gerardo Tobar Lopez,327,Buenaventura,,Colombia,South America,3.825,-76.9958
BUO,Burao,573,Burao,,Somalia,Africa,9.5225,45.5542
BUP,Bhatinda,733,Bhatinda,,India,Asia,30.1667,74.9667
BUQ,Joshua M. Nkomo Intl,565,Bulawayo,,Zimbabwe,Africa,-20.0169,28.6181
BUR,Hollywood-Burbank,91,Burbank,California,United States,North America,34.2,-118.3578
BUS,Batumi,432,Batumi,,Georgia,Asia,41.6108,41.6006
BUT,Bathpalathang,702,Jakar,,Bhutan,Asia,27.5619,90.7469
BUU,Buyo Airport,533,Buyo,,Ivory Coast (Cote d'Ivoire),Africa,6.35,-7.0833
BUV,Placeres,385,Bella Union,,Uruguay,South America,-30.3333,-57.0833
BUW,Betoambari,732,Baubau,,Indonesia,Asia,-5.4667,122.6333
BUX,Bunia,517,Bunia,,Democratic Republic of the Congo,Africa,1.5717,30.2128
BUY,Bunbury Airport,802,Bunbury,Western Australia,Australia,Australasia,-33.3167,115.6333
BUZ,Bushehr,632,"Bushehr, Iran",,Iran,Middle East,28.9492,50.8325
BVA,Beauvais-Tille,427,Paris,,France,Europe,49.4558,2.1125
BVB,A.B. Cantanhede Intl,316,Boa Vista,Roraima,Brazil,South America,2.8333,-60.6667
BVC,Rabil Airport,507,Boa Vista Island,,Cape Verde,Africa,16.0833,-22.8333
BVD,"Beaver Inlet Seaport, Ak",1,"Beaver Inlet, Ak",Alaska,United States,North America,53.8318,-166.3025
BVE,Vallee de la Dordogne,427,Brive-La-Gaillarde,,France,Europe,45.15,1.4667
BVF,Dama Airport,821,Bua,,Fiji,Australasia,-17,178.5
BVG,Berlevag,465,Berlevag,,Norway,Europe,70.8667,29
BVH,Brigadeiro Camarao,316,Vilhena,Rondonia,Brazil,South America,-12.6333,-60.1333
BVI,Birdsville,802,Birdsville,Queensland,Australia,Australasia,-25.8983,139.3433
BVK,Huacaraje Airport,312,Huacaraje,,Bolivia,South America,-13.55,-63.75
BVL,Baures Airport,312,Baures,,Bolivia,South America,-13.5833,-63.5833
BVM,Belmonte Airport,316,Belmonte,Bahia,Brazil,South America,-15.8333,-38.9167
BVN,Bus Station,713,Baoding,,China,Asia,38.8611,115.4811
BVO,Bartlesville Municipal,73,Bartlesville,Oklahoma,United States,North America,36.7625,-96.0108
BVP,Bolovip Airport,804,Bolovip,,Papua New Guinea,Australasia,-5.3833,141.7
BVQ,Railway Station,713,Baoding,,China,Asia,38.8622,115.4744
BVR,Esperadinha Airport,507,Brava Island,,Cape Verde,Africa,14.8667,-24.7333
BVS,Breves,316,Breves,Para,Brazil,South America,-1.6667,-50.4667
BVU,Beluga,1,Beluga,Alaska,United States,North America,61.1731,-151.0431
BVV,Burevestnik AFB,475,Iturup Island,Far East Federal District,Russian Federation,Asia,44.92,147.6217
BVW,Batavia Downs Airport,802,Batavia Downs,Queensland,Australia,Australasia,-12.65,143.2167
BVX,Batesville Regional Airport,71,Batesville,Arkansas,United States,North America,35.7667,-91.65
BVY,Beverly Airport,13,Beverly,Massachusetts,United States,North America,42.55,-70.8833
BVZ,Beverley Springs Airport,802,Beverley Springs,Western Australia,Australia,Australasia,-15,124
BWA,Gautam Buddha,755,Bhairahawa,,Nepal,Asia,27.5042,83.42
BWB,Barrow Island,802,Barrow Island,Western Australia,Australia,Australasia,-20.8,115.3833
BWC,Brawley Municipal,91,Brawley,California,United States,North America,32.9833,-115.5167
BWD,Brownwood Regional,74,Brownwood,Texas,United States,North America,31.7947,-98.9567
BWE,Braunschweig/Wolfsburg,429,Braunschweig,,Germany,Europe,52.1667,10.5
BWF,Walney Island,493,Barrow-in-Furness,England,United Kingdom,Europe,54.1167,-3.2333
BWG,Warren County,52,Bowling Green,Kentucky,United States,North America,36.9622,-86.4222
BWH,Butterworth Airport,749,Butterworth,,Malaysia,Asia,5.4667,100.3925
BWI,Baltimore/Wash Intl,35,Baltimore,Maryland,United States,North America,39.175,-76.67
BWJ,Bawan Airport,804,Bawan,,Papua New Guinea,Australasia,-6.4,146.9
BWK,Bol,415,Brac,,Croatia,Europe,43.2858,16.6797
BWL,Blackwell-Tonkawa Municipal,73,Blackwell,Oklahoma,United States,North America,36.8,-97.2833
BWM,Bowman Municipal,66,Bowman,North Dakota,United States,North America,46.1833,-103.4
BWN,Brunei International,704,Bandar Seri Begawan,,Brunei Darussalam,Asia,4.925,114.9278
BWO,Balakovo,475,Balakovo,Volga Federal District,Russian Federation,Europe,51.8667,47.75
BWP,Bewani Airport,804,Bewani,,Papua New Guinea,Australasia,-3.0167,141.15
BWQ,Brewarrina,802,Brewarrina,New South Wales,Australia,Australasia,-29.9667,146.8167
BWS,"Blaine Municipal, Wa",93,"Blaine, Wa",Washington,United States,North America,48.9894,-122.7299
BWT,Wynyard,802,Burnie,Tasmania,Australia,Australasia,-41,145.7333
BWU,Bankstown,802,Sydney,New South Wales,Australia,Australasia,-33.9167,150.9833
BWW,Cayo Las Brujas,219,Cayo Las Brujas,,Cuba,Caribbean,22.6284,-79.1126
BWX,Blimbingsari Airport,732,Banyuwangi,,Indonesia,Asia,-8.3106,114.34
BWY,Bentwaters Street Airport,493,Woodbridge,England,United Kingdom,Europe,52.1,1.3167
BXA,George R. Carr Mem. Airport,72,Bogalusa,Louisiana,United States,North America,30.9333,-89.8833
BXB,Babo,732,Irarutu,,Indonesia,Asia,-2.55,133.4167
BXC,Boxborough Airport,13,Boxborough,Massachusetts,United States,North America,42.4833,-71.5333
BXD,Bade,732,Bade,,Indonesia,Asia,-7.1639,139.5772
BXE,Bakel,569,Bakel,,Senegal,Africa,14.8417,-12.4678
BXF,Bellburn Airport,802,Bellburn,Western Australia,Australia,Australasia,-17.5456,128.3078
BXG,Bendigo Airport,802,Bendigo,Victoria,Australia,Australasia,-36.7347,144.3019
BXH,Balhash,738,Balhash,,Kazakhstan,Asia,46.8833,75.0167
BXI,Boundiali Airport,533,Boundiali,,Ivory Coast (Cote d'Ivoire),Africa,8.75,-6.5
BXJ,Borolday Airport,738,Almaty,,Kazakhstan,Asia,43.5,76.95
BXK,Buckeye Municipal,81,Buckeye,Arizona,United States,North America,33.3667,-112.5833
BXL,Blue Lagoon SPB,821,Nanuya Lailai,,Fiji,Australasia,-16.75,179
BXM,Batom,732,Batom,,Indonesia,Asia,-2.2833,139.6
BXN,Imsik,679,Bodrum,,Turkey,Europe,37.1347,27.6672
BXO,Osvaldo Vieira,559,Bissau,,Guinea Bissau,Africa,11.8889,-15.6572
BXP,Biala Podlaska,467,Biala Podlaska,,Poland,Europe,52.0031,23.1436
BXR,Bam Airport,632,Bam,,Iran,Middle East,29.1167,58.3667
BXS,Borrego Valley,91,Borrego Springs,California,United States,North America,33.2597,-116.3222
BXT,Bontang Airport,732,Bontang,,Indonesia,Asia,0.1667,117.5
BXU,Bancasi,766,Butuan,,Philippines,Asia,8.9514,125.4839
BXV,Breiddalsvik Airport,439,Breiddalsvik,,Iceland,Europe,64.7667,-14
BXX,Borama,573,Borama,,Somalia,Africa,9.9667,43.1167
BXZ,Bunsil Airport,804,Bunsil,,Papua New Guinea,Australasia,-5.7167,147.8667
BYA,Boundary,1,Boundary,Alaska,United States,North America,64.0764,-141.1144
BYB,Dibaa,658,Dibaa,,Oman,Middle East,25.6167,56.25
BYC,Yacuiba,312,Yacuiba,,Bolivia,South America,-21.9558,-63.6506
BYD,Beidah Airport,694,Beidah,,Yemen,Middle East,14.1333,46.55
BYF,Albert Bray,427,Albert,,France,Europe,49.9699,2.6925
BYG,Buffalo Municipal Airport,88,Buffalo,Wyoming,United States,North America,44.35,-106.7
BYH,Arkansas Intl,71,Blytheville,Arkansas,United States,North America,35.9333,-89.9167
BYI,Burley Municipal,83,Burley-Rupert,Idaho,United States,North America,42.5414,-113.7742
BYJ,Beja International Airport,469,Beja,,Portugal,Europe,38.0789,-7.9186
BYK,Bouake Airport,533,Bouake,,Ivory Coast (Cote d'Ivoire),Africa,7.7394,-5.0692
BYL,Belle Yella Airport,537,Belle Yella,,Liberia,Africa,7.3667,-10
BYM,Carlos M. de Cespedes,219,Bayamo,,Cuba,Caribbean,20.396,-76.6223
BYN,Bayankhongor Airport,751,Bayankhongor,,Mongolia,Asia,46.1,100.6833
BYO,Bonito Airport,316,Bonito,Mato Grosso do Sul,Brazil,South America,-21.2294,-56.4561
BYP,Barimunya,802,Barimunya,Western Australia,Australia,Australasia,-22.6739,119.1661
BYQ,Bunyu Airport,732,Bunyu,,Indonesia,Asia,3.5833,117.8333
BYR,Laeso Airport,419,Laeso Island,,Denmark,Europe,57.1167,11
BYS,Bicycle Lake Army Air Field,91,Fort Irwin,California,United States,North America,35.2667,-116.5667
BYT,Bantry Airport,441,Bantry,,Ireland,Europe,51.6833,-9.45
BYU,Bindlacher-Berg,429,Bayreuth,,Germany,Europe,49.9856,11.64
BYV,Beira Lake SPB,711,Colombo,,Sri Lanka,Asia,6.9281,79.8556
BYW,Blakely Island,93,Blakely Island,Washington,United States,North America,48.5792,-122.825
BYX,Baniyala Airport,802,Baniyala,Northern Territory,Australia,Australasia,-13.2,136.2333
BZA,San Pedro,153,Bonanza,,Nicaragua,Central America,13.95,-84.6
BZB,Bazaruto Island Airport,550,Bazaruto Island,,Mozambique,Africa,-21.5347,35.4917
BZC,Umberto Modiano,316,Buzios,Rio de Janeiro,Brazil,South America,-22.769,-41.964
BZD,Balranald Airport,802,Balranald,New South Wales,Australia,Australasia,-34.6167,143.6167
BZE,Belize International,106,Belize City,,Belize,Central America,17.5361,-88.31
BZF,Benton Field,91,Redding,California,United States,North America,40.5739,-122.4081
BZG,Ignacy Jan Paderewski,467,Bydgoszcz,,Poland,Europe,53.0967,17.9786
BZH,Bumi Hills Airport,565,Bumi Hills,,Zimbabwe,Africa,-16.8167,28.35
BZI,Balikesir,679,Balikesir,,Turkey,Europe,39.6172,27.9278
BZK,Bryansk Airport,475,Bryansk,Central Federal District,Russian Federation,Europe,53.2667,34.3333
BZL,Barisal,703,Barisal,,Bangladesh,Asia,22.6667,90.3333
BZM,Bergen Op Zoom,461,Bergen Op Zoom,,Netherlands,Europe,51.5,4.2833
BZN,Yellowstone Intl,84,Bozeman,Montana,United States,North America,45.7803,-111.1594
BZO,Dolomiti,450,Bolzano/Bozen,,Italy,Europe,46.4603,11.3267
BZP,Bizant Airport,802,Bizant,Queensland,Australia,Australasia,-15.2167,144.6333
BZQ,Railway Station,450,Bolzano/Bozen,,Italy,Europe,46.4964,11.35
BZR,Beziers Vias,427,Beziers,,France,Europe,43.3242,3.3544
BZS,Buzzards Point S Airport,32,Washington,District of Columbia,United States,North America,38.8633,-77.0133
BZT,Eagle Air Park,74,Brazoria,Texas,United States,North America,29.05,-95.5667
BZU,Zega,515,Buta,,Congo,Africa,2.8,24.7333
BZV,Maya Maya,515,Brazzaville,,Congo,Africa,-4.2519,15.2547
BZY,Balti International,457,Balti,,Moldova,Europe,47.75,27.9333
BZZ,Brize Norton Raf Stn,493,Brize Norton,England,United Kingdom,Europe,51.7492,-1.5811
CAA,El Aguacate Airport,131,Catacamas,,Honduras,Central America,14.8306,-85.8944
CAB,Cabinda,502,Cabinda,,Angola,Africa,-5.5833,12.2
CAC,A.Mendes da Silva,316,Cascavel,Parana,Brazil,South America,-24.9964,-53.5061
CAD,Wexford County,43,Cadillac,Michigan,United States,North America,44.2758,-85.4192
CAE,Columbia Metropolitan Airport,37,Columbia,South Carolina,United States,North America,33.9364,-81.1158
CAF,Carauari,316,Carauari,Amazonas,Brazil,South America,-4.9,-66.9167
CAG,Elmas,450,Cagliari,,Italy,Europe,39.2472,9.0611
CAH,Ca Mau,791,Ca Mau,,Vietnam,Asia,9.1667,105.15
CAI,Cairo Intl,591,Cairo,,Egypt,Africa,30.1375,31.4069
CAJ,Canaima,388,Canaima,,Venezuela,South America,6.25,-62.8333
CAK,Canton Regional,44,Akron/Canton,Ohio,United States,North America,40.9139,-81.4417
CAL,Campbeltown Airport,493,Campbeltown,Scotland,United Kingdom,Europe,55.4364,-5.6867
CAM,Camiri,312,Camiri,,Bolivia,South America,-20.0111,-63.5611
CAN,Baiyun International,713,Guangzhou,,China,Asia,23.1167,113.2333
CAO,Municipal Airpark,86,Clayton,New Mexico,United States,North America,36.45,-103.1833
CAP,Hugo Chavez Intl,238,Cap Haitien,,Haiti,Caribbean,19.7328,-72.195
CAQ,Juan H. White,327,Caucasia,,Colombia,South America,7.6,-75.25
CAR,Caribou Municipal,12,Caribou,Maine,United States,North America,46.8708,-68.0208
CAS,Anfa,548,Casablanca,,Morocco,Africa,33.5597,-7.6631
CAT,Cat Island,204,Cat Island,,Bahamas,Caribbean,24.315,-75.4536
CAU,Oscar Laranjeiras,316,Caruaru,Pernambuco,Brazil,South America,-8.2833,-35.9667
CAV,Cazombo,502,Cazombo,,Angola,Africa,-11.8833,22.9333
CAW,Bartolomeu Lisandro,316,Campos,Rio de Janeiro,Brazil,South America,-21.75,-41.3
CAX,Carlisle,493,Carlisle,England,United Kingdom,Europe,54.9367,-2.8094
CAY,Felix Eboue,344,Cayenne,,French Guiana,South America,4.82,-52.3633
CAZ,Cobar,802,Cobar,New South Wales,Australia,Australasia,-31.535,145.7933
CBA,Bus Station,482,Cordoba,,Spain,Europe,37.8886,-4.7892
CBB,Jorge Wilstermann Intl,312,Cochabamba,,Bolivia,South America,-17.4283,-66.1717
CBC,Cherrabun Airport,802,Cherrabun,Western Australia,Australia,Australasia,-18.9167,125.55
CBD,AFB,733,Car Nicobar Island,,India,Asia,9.15,92.8167
CBE,Wiley Ford,35,Cumberland,Maryland,United States,North America,39.6144,-78.7661
CBF,Council Bluffs,61,Council Bluffs,Iowa,United States,North America,41.2667,-95.8667
CBG,Cambridge,493,Cambridge,England,United Kingdom,Europe,52.2056,0.1764
CBH,Boudghene B. Ali Lotfi,500,Bechar,,Algeria,Africa,31.6478,-2.2597
CBI,Cape Barren Island,802,Cape Barren Island,Tasmania,Australia,Australasia,-40.3333,148.1667
CBJ,Cabo Rojo,224,Pedernales,,Dominican Republic,Caribbean,17.9333,-71.65
CBK,Colby Municipal Airport,62,Colby,Kansas,United States,North America,39.4,-101.05
CBL,Tomas de Heres,388,Ciudad Bolivar,,Venezuela,South America,8.1281,-63.5375
CBM,Columbus Air Force Base,53,Columbus,Mississippi,United States,North America,33.5,-88.4167
CBN,Cakrabhuwana,732,Cirebon,,Indonesia,Asia,-6.75,108.5333
CBO,Awang,766,Cotabato,,Philippines,Asia,7.2,124.1667
CBP,Coimbra Airport,469,Coimbra,,Portugal,Europe,40.2,-8.4167
CBQ,Margaret Ekpo International Airport,555,Calabar,,Nigeria,Africa,4.9636,8.3428
CBR,Canberra,802,Canberra,Australian Cap. Terr.,Australia,Australasia,-35.3089,149.195
CBS,Oro Negro,388,Cabimas,,Venezuela,South America,10.3833,-71.4667
CBT,Catumbela Airport,502,Catumbela,,Angola,Africa,-12.4833,13.4833
CBU,Drewitz,429,Cottbus,,Germany,Europe,51.7703,14.2992
CBV,Coban Airport,127,Coban,,Guatemala,Central America,15.4717,-90.4092
CBW,G.Guias de Aquino,316,Campo Mourao,Parana,Brazil,South America,-24.0019,-52.3564
CBX,Condobolin Airport,802,Condobolin,New South Wales,Australia,Australasia,-33.8667,148.25
CBY,Canobie Airport,802,Canobie,Queensland,Australia,Australasia,-19.4786,140.9261
CBZ,Cabin Creek Airport,1,Cabin Creek,Alaska,United States,North America,55.3833,-132.4167
CCA,Chaffee Air Force Base,71,Fort Chaffee,Arkansas,United States,North America,35.3167,-94.3
CCB,Cable,91,Upland,California,United States,North America,34.0833,-117.6333
CCC,Jardines del Rey,219,Cayo Coco,,Cuba,Caribbean,22.5139,-78.5083
CCD,Century City Airport,91,Los Angeles,California,United States,North America,34.0667,-118.2667
CCE,Grand Case Airport,235,Saint Martin,,Guadeloupe,Caribbean,18.05,-63.1167
CCF,Salvaza,427,Carcassonne,,France,Europe,43.2158,2.3069
CCG,Crane County,74,Crane,Texas,United States,North America,31.4,-102.35
CCH,Chile Chico,324,Chile Chico,,Chile,South America,-46.5642,-71.6883
CCI,Olavo Cecco Rigon,316,Concordia,Santa Catarina,Brazil,South America,-27.1814,-52.0506
CCJ,Calicut International,733,Calicut-Kozhikode,,India,Asia,11.1333,75.9528
CCK,Cocos Islands,812,Cocos-Keeling Is.,,Cocos (Keeling) Islands,Australasia,-12.1886,96.8306
CCL,Chinchilla,802,Chinchilla,Queensland,Australia,Australasia,-26.7833,150.6167
CCM,Diomcio Freitas,316,Crisciuma,Santa Catarina,Brazil,South America,-28.7239,-49.4208
CCN,Chaghcharan,701,Chaghcharan,,Afghanistan,Asia,34.5333,65.2667
CCO,Carimagua,327,Carimagua,,Colombia,South America,4.5667,-71.3333
CCP,Carriel Sur,324,Concepcion,,Chile,South America,-36.7736,-73.06
CCQ,Cachoeira Airport,316,Cachoeira,Bahia,Brazil,South America,-12.6,-38.9667
CCR,Buchanan Field,91,Concord,California,United States,North America,37.9889,-122.0556
CCS,Simon Bolivar International,388,Caracas,,Venezuela,South America,10.6053,-66.9881
CCT,Catriel,303,Catriel,Rio Negro,Argentina,South America,-37.85,-67.8667
CCU,Subhas Chandra Bose Airport,733,Kolkata,,India,Asia,22.6525,88.4492
CCV,Craig Cove,885,Craig Cove,,Vanuatu,Australasia,-16.2649,167.9244
CCW,Cowell Airport,802,Cowell,South Australia,Australia,Australasia,-33.6333,136.8333
CCX,Caceres,316,Caceres,Mato Grosso,Brazil,South America,-16.05,-57.65
CCY,Charles City,61,Charles City,Iowa,United States,North America,43.0667,-92.6667
CCZ,Chub Cay International,204,Chub Cay,,Bahamas,Caribbean,25.4175,-77.8814
CDA,Cooinda,802,Cooinda,Northern Territory,Australia,Australasia,-12.9,132.5167
CDB,Cold Bay,1,Cold Bay,Alaska,United States,North America,55.1997,-162.7197
CDC,Cedar City Municipal,87,Cedar City,Utah,United States,North America,37.7025,-113.0961
CDD,Cauquira Airport,131,Cauquira,,Honduras,Central America,15.3167,-83.5833
CDE,Caledonia,162,Caledonia,,Panama,Central America,8.2333,-77.3333
CDF,Fiames,450,Cortina D'Ampezzo,,Italy,Europe,46.575,12.1167
CDG,Charles De Gaulle,427,Paris-De Gaulle,,France,Europe,49.0097,2.5486
CDH,Harrell Field,71,Camden,Arkansas,United States,North America,33.6175,-92.7633
CDI,Raimundo de Andrade,316,Cachoeiro de Itapemirim,Espirito Santo,Brazil,South America,-20.8361,-41.1869
CDJ,Conceicao do Araguaia,316,Conceicao do Araguaia,Para,Brazil,South America,-8.2333,-49.2833
CDK,Lewis,33,Cedar Key,Florida,United States,North America,29.1333,-83.0333
CDL,Candle,1,Candle,Alaska,United States,North America,65.9081,-161.9383
CDM,Fluvial Bus Station,385,Colonia del Sacramento,,Uruguay,South America,-34.475,-57.8425
CDN,Woodward Field,37,Camden,South Carolina,United States,North America,34.2667,-80.6
CDO,Cradock Airport,562,Cradock,,South Africa,Africa,-32.1333,25.6
CDP,Cuddapah,733,Cuddapah,,India,Asia,14.5167,78.7833
CDQ,Croydon,802,Croydon,Queensland,Australia,Australasia,-18.3,142.25
CDR,Chadron Municipal,65,Chadron,Nebraska,United States,North America,42.835,-103.0978
CDS,Childress,74,Childress,Texas,United States,North America,34.4167,-100.2167
CDT,Castellon Airport,482,Castellon de la Plana,,Spain,Europe,40.2097,0.0197
CDU,Camden Airport,802,Camden,New South Wales,Australia,Australasia,-15.45,124.4167
CDV,Merle K (Mudhole) Smith,1,Cordova,Alaska,United States,North America,60.4931,-145.47
CDW,Caldwell Wright,21,Caldwell,New Jersey,United States,North America,40.8756,-74.2814
CDY,Cagayan de Sulu,766,Mapun,,Philippines,Asia,7.0167,118.5
CDZ,Cadiz Railway Station,482,Cadiz,,Spain,Europe,36.5294,-6.2886
CEA,Cessna Aircraft Field,62,Wichita,Kansas,United States,North America,37.7,-97.3333
CEB,Mactan International,766,Cebu,,Philippines,Asia,10.3317,123.9067
CEC,Jack Mc Namara Field,91,Crescent City,California,United States,North America,41.78,-124.2358
CED,Ceduna,802,Ceduna,South Australia,Australia,Australasia,-32.1317,133.7058
CEE,Cherepovets Airport,475,Cherepovets,Northwestern Federal District,Russian Federation,Europe,59.2833,38.0667
CEF,Westover Metro Airport,13,Springfield,Massachusetts,United States,North America,42.15,-72.6167
CEG,Hawarden Airport,493,Chester,England,United Kingdom,Europe,53.18,-2.9736
CEH,Chelinda Airport,542,Chelinda,,Malawi,Africa,-10.55,33.8
CEI,Mae Fah Luang Intl,782,Chiang Rai,,Thailand,Asia,19.8864,99.8306
CEJ,Railway Station,482,Cuenca,,Spain,Europe,40.0673,-2.1365
CEK,Balandino Airport,475,Chelyabinsk,Urals Federal District,Russian Federation,Asia,55.3,61.5
CEL,Cape Eleuthera,204,Cape Eleuthera,,Bahamas,Caribbean,24.7864,-76.3031
CEM,Central,1,Central,Alaska,United States,North America,65.5747,-144.7819
CEN,Ciudad Obregon International,148,Ciudad Obregon,,Mexico,North America,27.3919,-109.8392
CEO,Waku Kungo,502,Waku Kungo,,Angola,Africa,-11.425,15.1053
CEP,Concepcion Airport,312,Concepcion,,Bolivia,South America,-16.2333,-62.0833
CEQ,Mandelieu,427,Cannes,,France,Europe,43.5472,6.9547
CER,Maupertus,427,Cherbourg,,France,Europe,49.6511,-1.4653
CES,Cessnock,802,Cessnock,New South Wales,Australia,Australasia,-32.0833,151.0833
CET,Le Pontreau Airport,427,Cholet,,France,Europe,47.0667,-0.8667
CEU,Oconee County Airport,37,Clemson,South Carolina,United States,North America,34.6833,-82.8333
CEV,Mettel Field,42,Connersville,Indiana,United States,North America,39.65,-85.1333
